__time,/eta_hat/lat,/eta_hat/lon,/eta_hat/phi,/eta_hat/psi,/eta_hat/theta,/eta_hat/z,/eta_setpoint/lat,/eta_setpoint/lon,/eta_setpoint/phi,/eta_setpoint/psi,/eta_setpoint/theta,/eta_setpoint/z,/nu_hat/p,/nu_hat/q,/nu_hat/r,/nu_hat/u,/nu_hat/v,/nu_hat/w,/nu_setpoint/p,/nu_setpoint/q,/nu_setpoint/r,/nu_setpoint/u,/nu_setpoint/v,/nu_setpoint/w,/thruster_1_feedback/active,/thruster_1_feedback/azimuth_deg,/thruster_1_feedback/error,/thruster_1_feedback/pitch,/thruster_1_feedback/rps,/thruster_1_feedback/thruster_id,/thruster_1_setpoints/active,/thruster_1_setpoints/azimuth_deg,/thruster_1_setpoints/error,/thruster_1_setpoints/pitch,/thruster_1_setpoints/rps,/thruster_1_setpoints/thruster_id
1732719228.464051,,,,,,,,,,,,,,,,,,,,,,,,,1.000000000,0.000000000,0.000000000,0.000000000,8.649767792,1.000000000,,,,,,
1732719228.500001,,,,,,,,,,,,,,,,,,,,,,,,,,,,,,,1.000000000,0.000000000,0.000000000,0.000000000,-8.469717545,1.000000000
1732719228.548200,,,,,,,0.000000000,0.000000000,0.000000000,-0.314159274,0.000000000,0.000000000,,,,,,,,,,,,,,,,,,,,,,,,
1732719228.550141,,,,,,,,,,,,,,,,,,,0.000000000,0.000000000,0.000000000,2.006331682,0.000000000,0.000000000,,,,,,,,,,,,
1732719228.557497,,,,,,,,,,,,,0.000000000,0.000000000,0.005110840,0.971621275,0.110768333,0.000000000,,,,,,,,,,,,,,,,,,
1732719228.557574,62.470050812,6.240174294,-0.005720228,1.233418345,0.000000000,-0.006978678,,,,,,,,,,,,,,,,,,,,,,,,,,,,,,
1732719228.563986,,,,,,,,,,,,,,,,,,,,,,,,,1.000000000,0.000000000,0.000000000,0.000000000,2.943272680,1.000000000,,,,,,
1732719228.588139,,,,,,,,,,,,,,,,,,,,,,,,,,,,,,,1.000000000,0.000000000,0.000000000,0.000000000,-11.515527518,1.000000000
1732719228.649848,,,,,,,0.000000000,0.000000000,0.000000000,-0.471238911,0.000000000,0.000000000,,,,,,,,,,,,,,,,,,,,,,,,
1732719228.650032,,,,,,,,,,,,,,,,,,,0.000000000,0.000000000,0.000000000,2.006331682,0.000000000,0.000000000,,,,,,,,,,,,
1732719228.652136,62.470050812,6.240176201,0.001042299,1.223453879,0.000000000,0.001271605,,,,,,,,,,,,,,,,,,,,,,,,,,,,,,
1732719228.652636,,,,,,,,,,,,,0.000000000,0.000000000,-0.100686267,0.925064623,0.112182274,0.000000000,,,,,,,,,,,,,,,,,,
1732719228.664597,,,,,,,,,,,,,,,,,,,,,,,,,1.000000000,0.000000000,0.000000000,0.000000000,-1.876327386,1.000000000,,,,,,
1732719228.689034,,,,,,,,,,,,,,,,,,,,,,,,,,,,,,,1.000000000,0.000000000,0.000000000,0.000000000,-11.054244593,1.000000000
1732719228.747867,,,,,,,0.000000000,0.000000000,0.000000000,-0.541052043,0.000000000,0.000000000,,,,,,,,,,,,,,,,,,,,,,,,
1732719228.749326,,,,,,,,,,,,,,,,,,,0.000000000,0.000000000,0.000000000,2.006331682,0.000000000,0.000000000,,,,,,,,,,,,
1732719228.754029,62.470050812,6.240178108,0.014825923,1.205480337,0.000000000,0.018087627,,,,,,,,,,,,,,,,,,,,,,,,,,,,,,
1732719228.754248,,,,,,,,,,,,,0.000000000,0.000000000,-0.194561884,0.882533312,0.114601068,0.000000000,,,,,,,,,,,,,,,,,,
1732719228.764024,,,,,,,,,,,,,,,,,,,,,,,,,1.000000000,0.000000000,0.000000000,0.000000000,-4.935633122,1.000000000,,,,,,
1732719228.790771,,,,,,,,,,,,,,,,,,,,,,,,,,,,,,,1.000000000,0.000000000,0.000000000,0.000000000,-9.584321428,1.000000000
1732719228.850156,,,,,,,,,,,,,,,,,,,0.000000000,0.000000000,0.000000000,2.006331682,0.000000000,0.000000000,,,,,,,,,,,,
1732719228.850237,,,,,,,0.000000000,0.000000000,0.000000000,-0.837758064,0.000000000,0.000000000,,,,,,,,,,,,,,,,,,,,,,,,
1732719228.853245,,,,,,,,,,,,,0.000000000,0.000000000,-0.255810618,0.844081521,0.115865916,0.000000000,,,,,,,,,,,,,,,,,,
1732719228.853327,62.470050812,6.240179539,0.032953180,1.183194518,0.000000000,0.040202878,,,,,,,,,,,,,,,,,,,,,,,,,,,,,,
1732719228.866367,,,,,,,,,,,,,,,,,,,,,,,,,1.000000000,0.000000000,0.000000000,0.000000000,-6.485195891,1.000000000,,,,,,
1732719228.888904,,,,,,,,,,,,,,,,,,,,,,,,,,,,,,,1.000000000,0.000000000,0.000000000,0.000000000,-7.712551400,1.000000000
1732719228.948973,,,,,,,0.000000000,0.000000000,0.000000000,-0.994837701,0.000000000,0.000000000,,,,,,,,,,,,,,,,,,,,,,,,
1732719228.957317,,,,,,,,,,,,,,,,,,,0.000000000,0.000000000,0.000000000,2.006331682,0.000000000,0.000000000,,,,,,,,,,,,
1732719228.959981,62.470050812,6.240180969,0.049460966,1.159827948,0.000000000,0.060342383,,,,,,,,,,,,,,,,,,,,,,,,,,,,,,
1732719228.960237,,,,,,,,,,,,,0.000000000,0.000000000,-0.283126682,0.809628427,0.116400279,0.000000000,,,,,,,,,,,,,,,,,,
1732719228.964136,,,,,,,,,,,,,,,,,,,,,,,,,1.000000000,0.000000000,0.000000000,0.000000000,-6.894314394,1.000000000,,,,,,
1732719228.990228,,,,,,,,,,,,,,,,,,,,,,,,,,,,,,,1.000000000,0.000000000,0.000000000,0.000000000,-8.479018134,1.000000000
1732719229.048094,,,,,,,0.000000000,0.000000000,0.000000000,-1.012290955,0.000000000,0.000000000,,,,,,,,,,,,,,,,,,,,,,,,
1732719229.048525,,,,,,,,,,,,,,,,,,,0.000000000,0.000000000,0.000000000,2.006331682,0.000000000,0.000000000,,,,,,,,,,,,
1732719229.054480,62.470050812,6.240182400,0.062223397,1.134620428,0.000000000,0.075912543,,,,,,,,,,,,,,,,,,,,,,,,,,,,,,
1732719229.056759,,,,,,,,,,,,,0.000000000,0.000000000,-0.314298868,0.776876330,0.117468737,0.000000000,,,,,,,,,,,,,,,,,,
1732719229.064003,,,,,,,,,,,,,,,,,,,,,,,,,1.000000000,0.000000000,0.000000000,0.000000000,-7.422548974,1.000000000,,,,,,
1732719229.090717,,,,,,,,,,,,,,,,,,,,,,,,,,,,,,,1.000000000,0.000000000,0.000000000,0.000000000,-7.812291212,1.000000000
1732719229.149572,,,,,,,0.000000000,0.000000000,0.000000000,-1.099557400,0.000000000,0.000000000,,,,,,,,,,,,,,,,,,,,,,,,
1732719229.151670,,,,,,,,,,,,,,,,,,,0.000000000,0.000000000,0.000000000,2.006331682,0.000000000,0.000000000,,,,,,,,,,,,
1732719229.153240,62.470050812,6.240183830,0.071472391,1.108659625,0.000000000,0.087196320,,,,,,,,,,,,,,,,,,,,,,,,,,,,,,
1732719229.154619,,,,,,,,,,,,,0.000000000,0.000000000,-0.331080496,0.746624827,0.119699694,0.000000000,,,,,,,,,,,,,,,,,,
1732719229.165745,,,,,,,,,,,,,,,,,,,,,,,,,1.000000000,0.000000000,0.000000000,0.000000000,-7.552463053,1.000000000,,,,,,
1732719229.187643,,,,,,,,,,,,,,,,,,,,,,,,,,,,,,,1.000000000,0.000000000,0.000000000,0.000000000,-7.076223678,1.000000000
1732719229.249873,,,,,,,0.000000000,0.000000000,0.000000000,-1.221730471,0.000000000,0.000000000,,,,,,,,,,,,,,,,,,,,,,,,
1732719229.256028,,,,,,,,,,,,,,,,,,,0.000000000,0.000000000,0.000000000,2.006331682,0.000000000,0.000000000,,,,,,,,,,,,
1732719229.256202,,,,,,,,,,,,,0.000000000,0.000000000,-0.335940301,0.719315529,0.120568134,0.000000000,,,,,,,,,,,,,,,,,,
1732719229.256252,62.470050812,6.240185261,0.077228062,1.082788348,0.000000000,0.094218239,,,,,,,,,,,,,,,,,,,,,,,,,,,,,,
1732719229.264069,,,,,,,,,,,,,,,,,,,,,,,,,1.000000000,0.000000000,0.000000000,0.000000000,-7.393716595,1.000000000,,,,,,
1732719229.287712,,,,,,,,,,,,,,,,,,,,,,,,,,,,,,,1.000000000,0.000000000,0.000000000,0.000000000,-7.629036484,1.000000000
1732719229.349685,,,,,,,,,,,,,,,,,,,0.000000000,0.000000000,0.000000000,2.006331682,0.000000000,0.000000000,,,,,,,,,,,,
1732719229.349772,,,,,,,0.000000000,0.000000000,0.000000000,-1.291543603,0.000000000,0.000000000,,,,,,,,,,,,,,,,,,,,,,,,
1732719229.353528,,,,,,,,,,,,,0.000000000,0.000000000,-0.345788121,0.693881035,0.120914064,0.000000000,,,,,,,,,,,,,,,,,,
1732719229.353602,62.470050812,6.240186691,0.079131067,1.056122661,0.000000000,0.096539907,,,,,,,,,,,,,,,,,,,,,,,,,,,,,,
1732719229.366553,,,,,,,,,,,,,,,,,,,,,,,,,1.000000000,0.000000000,0.000000000,0.000000000,-7.472156558,1.000000000,,,,,,
1732719229.387806,,,,,,,,,,,,,,,,,,,,,,,,,,,,,,,1.000000000,0.000000000,0.000000000,0.000000000,-7.384934866,1.000000000
1732719229.448132,,,,,,,0.000000000,0.000000000,0.000000000,-1.343903542,0.000000000,0.000000000,,,,,,,,,,,,,,,,,,,,,,,,
1732719229.450864,,,,,,,,,,,,,,,,,,,0.000000000,0.000000000,0.000000000,2.006331682,0.000000000,0.000000000,,,,,,,,,,,,
1732719229.451200,62.470050812,6.240187645,0.079487167,1.028997540,0.000000000,0.096974343,,,,,,,,,,,,,,,,,,,,,,,,,,,,,,
1732719229.451382,,,,,,,,,,,,,0.000000000,0.000000000,-0.350739241,0.670405567,0.121577553,0.000000000,,,,,,,,,,,,,,,,,,
1732719229.464047,,,,,,,,,,,,,,,,,,,,,,,,,1.000000000,0.000000000,0.000000000,0.000000000,-7.443082661,1.000000000,,,,,,
1732719229.488513,,,,,,,,,,,,,,,,,,,,,,,,,,,,,,,1.000000000,0.000000000,0.000000000,0.000000000,-7.377842767,1.000000000
1732719229.549747,,,,,,,,,,,,,,,,,,,0.000000000,0.000000000,0.000000000,2.006331682,0.000000000,0.000000000,,,,,,,,,,,,
1732719229.549830,,,,,,,0.000000000,0.000000000,0.000000000,-1.378810167,0.000000000,0.000000000,,,,,,,,,,,,,,,,,,,,,,,,
1732719229.554768,,,,,,,,,,,,,0.000000000,0.000000000,-0.354487360,0.649359643,0.120339498,0.000000000,,,,,,,,,,,,,,,,,,
1732719229.554846,62.470050812,6.240189075,0.078394219,1.001388192,0.000000000,0.095640950,,,,,,,,,,,,,,,,,,,,,,,,,,,,,,
1732719229.563985,,,,,,,,,,,,,,,,,,,,,,,,,1.000000000,0.000000000,0.000000000,0.000000000,-7.421336030,1.000000000,,,,,,
1732719229.590038,,,,,,,,,,,,,,,,,,,,,,,,,,,,,,,1.000000000,0.000000000,0.000000000,0.000000000,-7.564193034,1.000000000
1732719229.650625,,,,,,,,,,,,,,,,,,,0.000000000,0.000000000,0.000000000,2.006331682,0.000000000,0.000000000,,,,,,,,,,,,
1732719229.650705,,,,,,,0.000000000,0.000000000,0.000000000,-1.378810167,0.000000000,0.000000000,,,,,,,,,,,,,,,,,,,,,,,,
1732719229.652614,62.470050812,6.240189552,0.076415554,0.973079920,0.000000000,0.093226977,,,,,,,,,,,,,,,,,,,,,,,,,,,,,,
1732719229.652820,,,,,,,,,,,,,0.000000000,0.000000000,-0.359497994,0.629004836,0.118862092,0.000000000,,,,,,,,,,,,,,,,,,
1732719229.664019,,,,,,,,,,,,,,,,,,,,,,,,,1.000000000,0.000000000,0.000000000,0.000000000,-7.468955031,1.000000000,,,,,,
1732719229.687936,,,,,,,,,,,,,,,,,,,,,,,,,,,,,,,1.000000000,0.000000000,0.000000000,0.000000000,-7.336727119,1.000000000
1732719229.749787,,,,,,,,,,,,,,,,,,,0.000000000,0.000000000,0.000000000,2.006331682,0.000000000,0.000000000,,,,,,,,,,,,
1732719229.749862,,,,,,,0.000000000,0.000000000,0.000000000,-1.378810167,0.000000000,0.000000000,,,,,,,,,,,,,,,,,,,,,,,,
1732719229.753244,,,,,,,,,,,,,0.000000000,0.000000000,-0.360833585,0.610079110,0.119209349,0.000000000,,,,,,,,,,,,,,,,,,
1732719229.753317,62.470050812,6.240190983,0.074543819,0.944450974,0.000000000,0.090943456,,,,,,,,,,,,,,,,,,,,,,,,,,,,,,
1732719229.763973,,,,,,,,,,,,,,,,,,,,,,,,,1.000000000,0.000000000,0.000000000,0.000000000,-7.424879060,1.000000000,,,,,,
1732719229.787673,,,,,,,,,,,,,,,,,,,,,,,,,,,,,,,1.000000000,0.000000000,0.000000000,0.000000000,-7.068041145,1.000000000
1732719229.847907,,,,,,,0.000000000,0.000000000,0.000000000,-1.378810167,0.000000000,0.000000000,,,,,,,,,,,,,,,,,,,,,,,,
1732719229.850062,,,,,,,,,,,,,,,,,,,0.000000000,0.000000000,0.000000000,2.006331682,0.000000000,0.000000000,,,,,,,,,,,,
1732719229.854274,62.470050812,6.240191460,0.072146907,0.915766180,0.000000000,0.088019229,,,,,,,,,,,,,,,,,,,,,,,,,,,,,,
1732719229.855160,,,,,,,,,,,,,0.000000000,0.000000000,-0.358994484,0.591475964,0.119269133,0.000000000,,,,,,,,,,,,,,,,,,
1732719229.864024,,,,,,,,,,,,,,,,,,,,,,,,,1.000000000,0.000000000,0.000000000,0.000000000,-7.305933088,1.000000000,,,,,,
1732719229.887840,,,,,,,,,,,,,,,,,,,,,,,,,,,,,,,1.000000000,0.000000000,0.000000000,0.000000000,-6.874728067,1.000000000
1732719229.949513,,,,,,,,,,,,,,,,,,,0.000000000,0.000000000,0.000000000,2.006331682,0.000000000,0.000000000,,,,,,,,,,,,
1732719229.949591,,,,,,,0.000000000,0.000000000,0.000000000,-1.378810167,0.000000000,0.000000000,,,,,,,,,,,,,,,,,,,,,,,,
1732719229.953016,,,,,,,,,,,,,0.000000000,0.000000000,-0.355649054,0.574594438,0.119596913,0.000000000,,,,,,,,,,,,,,,,,,
1732719229.953081,62.470050812,6.240192413,0.068598904,0.887061179,0.000000000,0.083690666,,,,,,,,,,,,,,,,,,,,,,,,,,,,,,
1732719229.966097,,,,,,,,,,,,,,,,,,,,,,,,,1.000000000,0.000000000,0.000000000,0.000000000,-7.162198081,1.000000000,,,,,,
1732719229.995024,,,,,,,,,,,,,,,,,,,,,,,,,,,,,,,1.000000000,0.000000000,0.000000000,0.000000000,-6.752375423,1.000000000
1732719230.047799,,,,,,,0.000000000,0.000000000,0.000000000,-1.378810167,0.000000000,0.000000000,,,,,,,,,,,,,,,,,,,,,,,,
1732719230.048088,,,,,,,,,,,,,,,,,,,0.000000000,0.000000000,0.000000000,2.006331682,0.000000000,0.000000000,,,,,,,,,,,,
1732719230.054700,62.470050812,6.240193367,0.064979248,0.858364165,0.000000000,0.079274684,,,,,,,,,,,,,,,,,,,,,,,,,,,,,,
1732719230.054770,,,,,,,,,,,,,0.000000000,0.000000000,-0.351949632,0.559172690,0.120121032,0.000000000,,,,,,,,,,,,,,,,,,
1732719230.063998,,,,,,,,,,,,,,,,,,,,,,,,,1.000000000,0.000000000,0.000000000,0.000000000,-7.025590528,1.000000000,,,,,,
1732719230.089454,,,,,,,,,,,,,,,,,,,,,,,,,,,,,,,1.000000000,0.000000000,0.000000000,0.000000000,-6.664773035,1.000000000
1732719230.153770,,,,,,,,,,,,,,,,,,,0.000000000,0.000000000,0.000000000,2.006331682,0.000000000,0.000000000,,,,,,,,,,,,
1732719230.153859,,,,,,,0.000000000,0.000000000,0.000000000,-1.378810167,0.000000000,0.000000000,,,,,,,,,,,,,,,,,,,,,,,,
1732719230.154041,,,,,,,,,,,,,0.000000000,0.000000000,-0.348348200,0.544305086,0.120166719,0.000000000,,,,,,,,,,,,,,,,,,
1732719230.154087,62.470050812,6.240193844,0.062248606,0.829754174,0.000000000,0.075943299,,,,,,,,,,,,,,,,,,,,,,,,,,,,,,
1732719230.164259,,,,,,,,,,,,,,,,,,,,,,,,,1.000000000,0.000000000,0.000000000,0.000000000,-6.905318031,1.000000000,,,,,,
1732719230.189862,,,,,,,,,,,,,,,,,,,,,,,,,,,,,,,1.000000000,0.000000000,0.000000000,0.000000000,-6.584760931,1.000000000
1732719230.251667,,,,,,,,,,,,,,,,,,,0.000000000,0.000000000,0.000000000,2.006331682,0.000000000,0.000000000,,,,,,,,,,,,
1732719230.251746,,,,,,,0.000000000,0.000000000,0.000000000,-1.378810167,0.000000000,0.000000000,,,,,,,,,,,,,,,,,,,,,,,,
1732719230.253159,,,,,,,,,,,,,0.000000000,0.000000000,-0.344905108,0.530299067,0.120025627,0.000000000,,,,,,,,,,,,,,,,,,
1732719230.253222,62.470050812,6.240194321,0.059203073,0.801183999,0.000000000,0.072227754,,,,,,,,,,,,,,,,,,,,,,,,,,,,,,
1732719230.264463,,,,,,,,,,,,,,,,,,,,,,,,,1.000000000,0.000000000,0.000000000,0.000000000,-6.798465664,1.000000000,,,,,,
1732719230.289108,,,,,,,,,,,,,,,,,,,,,,,,,,,,,,,1.000000000,0.000000000,0.000000000,0.000000000,-6.501279181,1.000000000
1732719230.349707,,,,,,,,,,,,,,,,,,,0.000000000,0.000000000,0.000000000,2.006331682,0.000000000,0.000000000,,,,,,,,,,,,
1732719230.349784,,,,,,,0.000000000,0.000000000,0.000000000,-1.378810167,0.000000000,0.000000000,,,,,,,,,,,,,,,,,,,,,,,,
1732719230.352375,62.470050812,6.240195274,0.055544626,0.772582591,0.000000000,0.067764446,,,,,,,,,,,,,,,,,,,,,,,,,,,,,,
1732719230.355906,,,,,,,,,,,,,0.000000000,0.000000000,-0.341558814,0.517253637,0.119846016,0.000000000,,,,,,,,,,,,,,,,,,
1732719230.363996,,,,,,,,,,,,,,,,,,,,,,,,,1.000000000,0.000000000,0.000000000,0.000000000,-6.699403503,1.000000000,,,,,,
1732719230.387620,,,,,,,,,,,,,,,,,,,,,,,,,,,,,,,1.000000000,0.000000000,0.000000000,0.000000000,-6.412500246,1.000000000
1732719230.450709,,,,,,,0.000000000,0.000000000,0.000000000,-1.378810167,0.000000000,0.000000000,,,,,,,,,,,,,,,,,,,,,,,,
1732719230.450945,,,,,,,,,,,,,,,,,,,0.000000000,0.000000000,0.000000000,2.006331682,0.000000000,0.000000000,,,,,,,,,,,,
1732719230.451878,62.470050812,6.240195274,0.052823626,0.744041085,0.000000000,0.064444825,,,,,,,,,,,,,,,,,,,,,,,,,,,,,,
1732719230.452069,,,,,,,,,,,,,0.000000000,0.000000000,-0.338238448,0.504821360,0.119334817,0.000000000,,,,,,,,,,,,,,,,,,
1732719230.465804,,,,,,,,,,,,,,,,,,,,,,,,,1.000000000,0.000000000,0.000000000,0.000000000,-6.603769084,1.000000000,,,,,,
1732719230.488000,,,,,,,,,,,,,,,,,,,,,,,,,,,,,,,1.000000000,0.000000000,0.000000000,0.000000000,-6.319424056,1.000000000
1732719230.552802,,,,,,,,,,,,,,,,,,,0.000000000,0.000000000,0.000000000,2.006331682,0.000000000,0.000000000,,,,,,,,,,,,
1732719230.552874,,,,,,,0.000000000,0.000000000,0.000000000,-1.378810167,0.000000000,0.000000000,,,,,,,,,,,,,,,,,,,,,,,,
1732719230.554822,,,,,,,,,,,,,0.000000000,0.000000000,-0.334904015,0.494404614,0.118891090,0.000000000,,,,,,,,,,,,,,,,,,
1732719230.554885,62.470054626,6.240196228,0.050301790,0.715580881,0.000000000,0.061368186,,,,,,,,,,,,,,,,,,,,,,,,,,,,,,
1732719230.563965,,,,,,,,,,,,,,,,,,,,,,,,,1.000000000,0.000000000,0.000000000,0.000000000,-6.508987408,1.000000000,,,,,,
1732719230.588983,,,,,,,,,,,,,,,,,,,,,,,,,,,,,,,1.000000000,0.000000000,0.000000000,0.000000000,-6.224101937,1.000000000
1732719230.650975,,,,,,,,,,,,,,,,,,,0.000000000,0.000000000,0.000000000,2.006331682,0.000000000,0.000000000,,,,,,,,,,,,
1732719230.651062,62.470054626,6.240197182,0.048040055,0.687230110,0.000000000,0.058608864,,,,,,,,,,,,,,,,,,,,,,,,,,,,,,
1732719230.651107,,,,,,,0.000000000,0.000000000,0.000000000,-1.378810167,0.000000000,0.000000000,,,,,,,,,,,,,,,,,,,,,,,,
1732719230.652236,,,,,,,,,,,,,0.000000000,0.000000000,-0.331547320,0.484706998,0.118354425,0.000000000,,,,,,,,,,,,,,,,,,
1732719230.664322,,,,,,,,,,,,,,,,,,,,,,,,,1.000000000,0.000000000,0.000000000,0.000000000,-6.414025584,1.000000000,,,,,,
1732719230.687647,,,,,,,,,,,,,,,,,,,,,,,,,,,,,,,1.000000000,0.000000000,0.000000000,0.000000000,-6.128480226,1.000000000
1732719230.747804,,,,,,,0.000000000,0.000000000,0.000000000,-1.378810167,0.000000000,0.000000000,,,,,,,,,,,,,,,,,,,,,,,,
1732719230.748048,,,,,,,,,,,,,,,,,,,0.000000000,0.000000000,0.000000000,2.006331682,0.000000000,0.000000000,,,,,,,,,,,,
1732719230.753768,62.470054626,6.240198135,0.046447195,0.659057677,0.000000000,0.056665577,,,,,,,,,,,,,,,,,,,,,,,,,,,,,,
1732719230.754025,,,,,,,,,,,,,0.000000000,0.000000000,-0.328171462,0.477694660,0.116328605,0.000000000,,,,,,,,,,,,,,,,,,
1732719230.763985,,,,,,,,,,,,,,,,,,,,,,,,,1.000000000,0.000000000,0.000000000,0.000000000,-6.318843798,1.000000000,,,,,,
1732719230.788896,,,,,,,,,,,,,,,,,,,,,,,,,,,,,,,1.000000000,0.000000000,0.000000000,0.000000000,-6.032223415,1.000000000
1732719230.849944,,,,,,,0.000000000,0.000000000,0.000000000,-1.378810167,0.000000000,0.000000000,,,,,,,,,,,,,,,,,,,,,,,,
1732719230.850024,,,,,,,,,,,,,,,,,,,0.000000000,0.000000000,0.000000000,2.006331682,0.000000000,0.000000000,,,,,,,,,,,,
1732719230.854120,62.470054626,6.240199089,0.044375747,0.631016552,0.000000000,0.054138415,,,,,,,,,,,,,,,,,,,,,,,,,,,,,,
1732719230.854327,,,,,,,,,,,,,0.000000000,0.000000000,-0.324787110,0.471240848,0.114836544,0.000000000,,,,,,,,,,,,,,,,,,
1732719230.864000,,,,,,,,,,,,,,,,,,,,,,,,,1.000000000,0.000000000,0.000000000,0.000000000,-6.223303670,1.000000000,,,,,,
1732719230.889383,,,,,,,,,,,,,,,,,,,,,,,,,,,,,,,1.000000000,0.000000000,0.000000000,0.000000000,-5.937003281,1.000000000
1732719230.948197,,,,,,,0.000000000,0.000000000,0.000000000,-1.378810167,0.000000000,0.000000000,,,,,,,,,,,,,,,,,,,,,,,,
1732719230.950206,,,,,,,,,,,,,,,,,,,0.000000000,0.000000000,0.000000000,2.006331682,0.000000000,0.000000000,,,,,,,,,,,,
1732719230.956368,,,,,,,,,,,,,0.000000000,0.000000000,-0.321403265,0.465570718,0.114246622,0.000000000,,,,,,,,,,,,,,,,,,
1732719230.956445,62.470054626,6.240200520,0.042389791,0.603115201,0.000000000,0.051715549,,,,,,,,,,,,,,,,,,,,,,,,,,,,,,
1732719230.964054,,,,,,,,,,,,,,,,,,,,,,,,,1.000000000,0.000000000,0.000000000,0.000000000,-6.127870207,1.000000000,,,,,,
1732719230.987786,,,,,,,,,,,,,,,,,,,,,,,,,,,,,,,1.000000000,0.000000000,0.000000000,0.000000000,-5.840912336,1.000000000
1732719231.049600,,,,,,,,,,,,,,,,,,,0.000000000,0.000000000,0.000000000,2.006331682,0.000000000,0.000000000,,,,,,,,,,,,
1732719231.049678,,,,,,,0.000000000,0.000000000,0.000000000,-1.378810167,0.000000000,0.000000000,,,,,,,,,,,,,,,,,,,,,,,,
1732719231.052588,62.470054626,6.240201473,0.041006364,0.575413883,0.000000000,0.050027765,,,,,,,,,,,,,,,,,,,,,,,,,,,,,,
1732719231.053075,,,,,,,,,,,,,0.000000000,0.000000000,-0.318019569,0.459841669,0.113399886,0.000000000,,,,,,,,,,,,,,,,,,
1732719231.064037,,,,,,,,,,,,,,,,,,,,,,,,,1.000000000,0.000000000,0.000000000,0.000000000,-6.032217584,1.000000000,,,,,,
1732719231.088931,,,,,,,,,,,,,,,,,,,,,,,,,,,,,,,1.000000000,0.000000000,0.000000000,0.000000000,-5.743878769,1.000000000
1732719231.147877,,,,,,,,,,,,,,,,,,,0.000000000,0.000000000,0.000000000,2.006331682,0.000000000,0.000000000,,,,,,,,,,,,
1732719231.147964,,,,,,,0.000000000,0.000000000,0.000000000,-1.378810167,0.000000000,0.000000000,,,,,,,,,,,,,,,,,,,,,,,,
1732719231.156778,62.470054626,6.240202427,0.039550226,0.547905266,0.000000000,0.048251279,,,,,,,,,,,,,,,,,,,,,,,,,,,,,,
1732719231.156971,,,,,,,,,,,,,0.000000000,0.000000000,-0.314636648,0.454115212,0.112300165,0.000000000,,,,,,,,,,,,,,,,,,
1732719231.163984,,,,,,,,,,,,,,,,,,,,,,,,,1.000000000,0.000000000,0.000000000,0.000000000,-5.936104645,1.000000000,,,,,,
1732719231.188865,,,,,,,,,,,,,,,,,,,,,,,,,,,,,,,1.000000000,0.000000000,0.000000000,0.000000000,-5.645641488,1.000000000
1732719231.248123,,,,,,,,,,,,,,,,,,,0.000000000,0.000000000,0.000000000,2.006331682,0.000000000,0.000000000,,,,,,,,,,,,
1732719231.248196,,,,,,,0.000000000,0.000000000,0.000000000,-1.378810167,0.000000000,0.000000000,,,,,,,,,,,,,,,,,,,,,,,,
1732719231.257270,,,,,,,,,,,,,0.000000000,0.000000000,-0.311257392,0.448709488,0.111389428,0.000000000,,,,,,,,,,,,,,,,,,
1732719231.257351,62.470058441,6.240203381,0.038268633,0.520606399,0.000000000,0.046687733,,,,,,,,,,,,,,,,,,,,,,,,,,,,,,
1732719231.265130,,,,,,,,,,,,,,,,,,,,,,,,,1.000000000,0.000000000,0.000000000,0.000000000,-5.839283593,1.000000000,,,,,,
1732719231.288572,,,,,,,,,,,,,,,,,,,,,,,,,,,,,,,1.000000000,0.000000000,0.000000000,0.000000000,-5.546075002,1.000000000
1732719231.347957,,,,,,,,,,,,,,,,,,,0.000000000,0.000000000,0.000000000,2.006331682,0.000000000,0.000000000,,,,,,,,,,,,
1732719231.348033,,,,,,,0.000000000,0.000000000,0.000000000,-1.378810167,0.000000000,0.000000000,,,,,,,,,,,,,,,,,,,,,,,,
1732719231.353041,62.470058441,6.240204334,0.036982611,0.493516207,0.000000000,0.045118786,,,,,,,,,,,,,,,,,,,,,,,,,,,,,,
1732719231.353750,,,,,,,,,,,,,0.000000000,0.000000000,-0.307884365,0.443667144,0.110735908,0.000000000,,,,,,,,,,,,,,,,,,
1732719231.363995,,,,,,,,,,,,,,,,,,,,,,,,,1.000000000,0.000000000,0.000000000,0.000000000,-5.741547396,1.000000000,,,,,,
1732719231.387793,,,,,,,,,,,,,,,,,,,,,,,,,,,,,,,1.000000000,0.000000000,0.000000000,0.000000000,-5.445382459,1.000000000
1732719231.451083,,,,,,,,,,,,,,,,,,,0.000000000,0.000000000,0.000000000,2.006331682,0.000000000,0.000000000,,,,,,,,,,,,
1732719231.451169,,,,,,,0.000000000,0.000000000,0.000000000,-1.378810167,0.000000000,0.000000000,,,,,,,,,,,,,,,,,,,,,,,,
1732719231.454971,62.470058441,6.240205765,0.035765290,0.466640800,0.000000000,0.043633655,,,,,,,,,,,,,,,,,,,,,,,,,,,,,,
1732719231.455171,,,,,,,,,,,,,0.000000000,0.000000000,-0.304519504,0.439204425,0.110766247,0.000000000,,,,,,,,,,,,,,,,,,
1732719231.464045,,,,,,,,,,,,,,,,,,,,,,,,,1.000000000,0.000000000,0.000000000,0.000000000,-5.642825750,1.000000000,,,,,,
1732719231.491843,,,,,,,,,,,,,,,,,,,,,,,,,,,,,,,1.000000000,0.000000000,0.000000000,0.000000000,-5.343441046,1.000000000
1732719231.547982,,,,,,,0.000000000,0.000000000,0.000000000,-1.378810167,0.000000000,0.000000000,,,,,,,,,,,,,,,,,,,,,,,,
1732719231.548485,,,,,,,,,,,,,,,,,,,0.000000000,0.000000000,0.000000000,2.006331682,0.000000000,0.000000000,,,,,,,,,,,,
1732719231.554303,62.470058441,6.240206242,0.034836456,0.440008163,0.000000000,0.042500474,,,,,,,,,,,,,,,,,,,,,,,,,,,,,,
1732719231.558086,,,,,,,,,,,,,0.000000000,0.000000000,-0.301162750,0.433997095,0.109577306,0.000000000,,,,,,,,,,,,,,,,,,
1732719231.564048,,,,,,,,,,,,,,,,,,,,,,,,,1.000000000,0.000000000,0.000000000,0.000000000,-5.543030849,1.000000000,,,,,,
1732719231.587996,,,,,,,,,,,,,,,,,,,,,,,,,,,,,,,1.000000000,0.000000000,0.000000000,0.000000000,-5.240367704,1.000000000
1732719231.654926,,,,,,,,,,,,,,,,,,,0.000000000,0.000000000,0.000000000,2.006331682,0.000000000,0.000000000,,,,,,,,,,,,
1732719231.654993,,,,,,,0.000000000,0.000000000,0.000000000,-1.378810167,0.000000000,0.000000000,,,,,,,,,,,,,,,,,,,,,,,,
1732719231.663692,,,,,,,,,,,,,0.000000000,0.000000000,-0.297816515,0.431442201,0.108580381,0.000000000,,,,,,,,,,,,,,,,,,
1732719231.663758,62.470058441,6.240207672,0.033595569,0.413586050,0.000000000,0.040986594,,,,,,,,,,,,,,,,,,,,,,,,,,,,,,
1732719231.672110,,,,,,,,,,,,,,,,,,,,,,,,,1.000000000,0.000000000,0.000000000,0.000000000,-5.442143134,1.000000000,,,,,,
1732719231.689564,,,,,,,,,,,,,,,,,,,,,,,,,,,,,,,1.000000000,0.000000000,0.000000000,0.000000000,-5.134963645,1.000000000
1732719231.749956,,,,,,,0.000000000,0.000000000,0.000000000,-1.378810167,0.000000000,0.000000000,,,,,,,,,,,,,,,,,,,,,,,,
1732719231.750339,,,,,,,,,,,,,,,,,,,0.000000000,0.000000000,0.000000000,2.006331682,0.000000000,0.000000000,,,,,,,,,,,,
1732719231.756058,62.470058441,6.240208149,0.032767791,0.387414724,0.000000000,0.039976705,,,,,,,,,,,,,,,,,,,,,,,,,,,,,,
1732719231.758820,,,,,,,,,,,,,0.000000000,0.000000000,-0.294481307,0.427051216,0.107282929,0.000000000,,,,,,,,,,,,,,,,,,
1732719231.770085,,,,,,,,,,,,,,,,,,,,,,,,,1.000000000,0.000000000,0.000000000,0.000000000,-5.339749971,1.000000000,,,,,,
1732719231.787955,,,,,,,,,,,,,,,,,,,,,,,,,,,,,,,1.000000000,0.000000000,0.000000000,0.000000000,-5.030327631,1.000000000
1732719231.852931,,,,,,,0.000000000,0.000000000,0.000000000,-1.378810167,0.000000000,0.000000000,,,,,,,,,,,,,,,,,,,,,,,,
1732719231.855872,,,,,,,,,,,,,,,,,,,0.000000000,0.000000000,0.000000000,2.006331682,0.000000000,0.000000000,,,,,,,,,,,,
1732719231.859385,62.470058441,6.240208626,0.031992387,0.361498296,0.000000000,0.039030712,,,,,,,,,,,,,,,,,,,,,,,,,,,,,,
1732719231.859592,,,,,,,,,,,,,0.000000000,0.000000000,-0.291156679,0.422990680,0.106543012,0.000000000,,,,,,,,,,,,,,,,,,
1732719231.865272,,,,,,,,,,,,,,,,,,,,,,,,,1.000000000,0.000000000,0.000000000,0.000000000,-5.236609191,1.000000000,,,,,,
1732719231.891622,,,,,,,,,,,,,,,,,,,,,,,,,,,,,,,1.000000000,0.000000000,0.000000000,0.000000000,-4.921902259,1.000000000
1732719231.947784,,,,,,,0.000000000,0.000000000,0.000000000,-1.378810167,0.000000000,0.000000000,,,,,,,,,,,,,,,,,,,,,,,,
1732719231.948051,,,,,,,,,,,,,,,,,,,0.000000000,0.000000000,0.000000000,2.006331682,0.000000000,0.000000000,,,,,,,,,,,,
1732719231.960573,62.470058441,6.240210056,0.031558827,0.335869819,0.000000000,0.038501769,,,,,,,,,,,,,,,,,,,,,,,,,,,,,,
1732719231.963994,,,,,,,,,,,,,0.000000000,0.000000000,-0.287843347,0.419631422,0.106889710,0.000000000,,,,,,,,,,,,,,,,,,
1732719231.967415,,,,,,,,,,,,,,,,,,,,,,,,,1.000000000,0.000000000,0.000000000,0.000000000,-5.131706880,1.000000000,,,,,,
1732719231.995039,,,,,,,,,,,,,,,,,,,,,,,,,,,,,,,1.000000000,0.000000000,0.000000000,0.000000000,-4.811861612,1.000000000
1732719232.052849,,,,,,,0.000000000,0.000000000,0.000000000,-1.378810167,0.000000000,0.000000000,,,,,,,,,,,,,,,,,,,,,,,,
1732719232.053046,,,,,,,,,,,,,,,,,,,0.000000000,0.000000000,0.000000000,2.006331682,0.000000000,0.000000000,,,,,,,,,,,,
1732719232.053201,,,,,,,,,,,,,0.000000000,0.000000000,-0.284545243,0.416473836,0.107080668,0.000000000,,,,,,,,,,,,,,,,,,
1732719232.053247,62.470058441,6.240211010,0.030714918,0.310486794,0.000000000,0.037472200,,,,,,,,,,,,,,,,,,,,,,,,,,,,,,
1732719232.063997,,,,,,,,,,,,,,,,,,,,,,,,,1.000000000,0.000000000,0.000000000,0.000000000,-5.025091791,1.000000000,,,,,,
1732719232.087690,,,,,,,,,,,,,,,,,,,,,,,,,,,,,,,1.000000000,0.000000000,0.000000000,0.000000000,-4.700828573,1.000000000
1732719232.149059,,,,,,,0.000000000,0.000000000,0.000000000,-1.378810167,0.000000000,0.000000000,,,,,,,,,,,,,,,,,,,,,,,,
1732719232.151178,,,,,,,,,,,,,,,,,,,0.000000000,0.000000000,0.000000000,2.006331682,0.000000000,0.000000000,,,,,,,,,,,,
1732719232.159632,62.470058441,6.240212440,0.029792067,0.285339385,0.000000000,0.036346320,,,,,,,,,,,,,,,,,,,,,,,,,,,,,,
1732719232.162033,,,,,,,,,,,,,0.000000000,0.000000000,-0.281266063,0.413529605,0.107125007,0.000000000,,,,,,,,,,,,,,,,,,
1732719232.164024,,,,,,,,,,,,,,,,,,,,,,,,,1.000000000,0.000000000,0.000000000,0.000000000,-4.917004051,1.000000000,,,,,,
1732719232.188283,,,,,,,,,,,,,,,,,,,,,,,,,,,,,,,1.000000000,0.000000000,0.000000000,0.000000000,-4.587573317,1.000000000
1732719232.248022,,,,,,,0.000000000,0.000000000,0.000000000,-1.378810167,0.000000000,0.000000000,,,,,,,,,,,,,,,,,,,,,,,,
1732719232.248537,,,,,,,,,,,,,,,,,,,0.000000000,0.000000000,0.000000000,2.006331682,0.000000000,0.000000000,,,,,,,,,,,,
1732719232.251906,,,,,,,,,,,,,0.000000000,0.000000000,-0.278004140,0.411133975,0.105630964,0.000000000,,,,,,,,,,,,,,,,,,
1732719232.251976,62.470058441,6.240212917,0.029138435,0.260452837,0.000000000,0.035548888,,,,,,,,,,,,,,,,,,,,,,,,,,,,,,
1732719232.264022,,,,,,,,,,,,,,,,,,,,,,,,,1.000000000,0.000000000,0.000000000,0.000000000,-4.807193807,1.000000000,,,,,,
1732719232.288094,,,,,,,,,,,,,,,,,,,,,,,,,,,,,,,1.000000000,0.000000000,0.000000000,0.000000000,-4.471691312,1.000000000
1732719232.347824,,,,,,,,,,,,,,,,,,,0.000000000,0.000000000,0.000000000,2.006331682,0.000000000,0.000000000,,,,,,,,,,,,
1732719232.347908,,,,,,,0.000000000,0.000000000,0.000000000,-1.378810167,0.000000000,0.000000000,,,,,,,,,,,,,,,,,,,,,,,,
1732719232.353108,,,,,,,,,,,,,0.000000000,0.000000000,-0.274758130,0.409106523,0.104093589,0.000000000,,,,,,,,,,,,,,,,,,
1732719232.353268,62.470062256,6.240212917,0.028383086,0.235815316,0.000000000,0.034627363,,,,,,,,,,,,,,,,,,,,,,,,,,,,,,
1732719232.363975,,,,,,,,,,,,,,,,,,,,,,,,,1.000000000,0.000000000,0.000000000,0.000000000,-4.695359642,1.000000000,,,,,,
1732719232.387951,,,,,,,,,,,,,,,,,,,,,,,,,,,,,,,1.000000000,0.000000000,0.000000000,0.000000000,-4.353769321,1.000000000
1732719232.449601,,,,,,,,,,,,,,,,,,,0.000000000,0.000000000,0.000000000,2.006331682,0.000000000,0.000000000,,,,,,,,,,,,
1732719232.449679,,,,,,,0.000000000,0.000000000,0.000000000,-1.378810167,0.000000000,0.000000000,,,,,,,,,,,,,,,,,,,,,,,,
1732719232.454412,,,,,,,,,,,,,0.000000000,0.000000000,-0.271526664,0.406440437,0.102602832,0.000000000,,,,,,,,,,,,,,,,,,
1732719232.454492,62.470062256,6.240213394,0.028102988,0.211472958,0.000000000,0.034285646,,,,,,,,,,,,,,,,,,,,,,,,,,,,,,
1732719232.464076,,,,,,,,,,,,,,,,,,,,,,,,,1.000000000,0.000000000,0.000000000,0.000000000,-4.581496201,1.000000000,,,,,,
1732719232.488312,,,,,,,,,,,,,,,,,,,,,,,,,,,,,,,1.000000000,0.000000000,0.000000000,0.000000000,-4.233306993,1.000000000
1732719232.550043,,,,,,,,,,,,,,,,,,,0.000000000,0.000000000,0.000000000,2.006331682,0.000000000,0.000000000,,,,,,,,,,,,
1732719232.550132,,,,,,,0.000000000,0.000000000,0.000000000,-1.378810167,0.000000000,0.000000000,,,,,,,,,,,,,,,,,,,,,,,,
1732719232.554138,,,,,,,,,,,,,0.000000000,0.000000000,-0.268312216,0.404087663,0.100993119,0.000000000,,,,,,,,,,,,,,,,,,
1732719232.554208,62.470062256,6.240213871,0.027333084,0.187375039,0.000000000,0.033346362,,,,,,,,,,,,,,,,,,,,,,,,,,,,,,
1732719232.564047,,,,,,,,,,,,,,,,,,,,,,,,,1.000000000,0.000000000,0.000000000,0.000000000,-4.465433132,1.000000000,,,,,,
1732719232.587798,,,,,,,,,,,,,,,,,,,,,,,,,,,,,,,1.000000000,0.000000000,0.000000000,0.000000000,-4.108855848,1.000000000
1732719232.647804,,,,,,,,,,,,,,,,,,,0.000000000,0.000000000,0.000000000,2.006331682,0.000000000,0.000000000,,,,,,,,,,,,
1732719232.647875,,,,,,,0.000000000,0.000000000,0.000000000,-1.378810167,0.000000000,0.000000000,,,,,,,,,,,,,,,,,,,,,,,,
1732719232.654517,,,,,,,,,,,,,0.000000000,0.000000000,-0.265118301,0.402098596,0.099472657,0.000000000,,,,,,,,,,,,,,,,,,
1732719232.654606,62.470062256,6.240213871,0.026467649,0.163509980,0.000000000,0.032290533,,,,,,,,,,,,,,,,,,,,,,,,,,,,,,
1732719232.664002,,,,,,,,,,,,,,,,,,,,,,,,,1.000000000,0.000000000,0.000000000,0.000000000,-4.346574037,1.000000000,,,,,,
1732719232.687855,,,,,,,,,,,,,,,,,,,,,,,,,,,,,,,1.000000000,0.000000000,0.000000000,0.000000000,-3.981003978,1.000000000
1732719232.749700,,,,,,,,,,,,,,,,,,,0.000000000,0.000000000,0.000000000,2.006331682,0.000000000,0.000000000,,,,,,,,,,,,
1732719232.749777,,,,,,,0.000000000,0.000000000,0.000000000,-1.378810167,0.000000000,0.000000000,,,,,,,,,,,,,,,,,,,,,,,,
1732719232.755130,,,,,,,,,,,,,0.000000000,0.000000000,-0.261943340,0.400460452,0.098031625,0.000000000,,,,,,,,,,,,,,,,,,
1732719232.755207,62.470062256,6.240214348,0.025787374,0.139894381,0.000000000,0.031460594,,,,,,,,,,,,,,,,,,,,,,,,,,,,,,
1732719232.764024,,,,,,,,,,,,,,,,,,,,,,,,,1.000000000,0.000000000,0.000000000,0.000000000,-4.224717351,1.000000000,,,,,,
1732719232.787687,,,,,,,,,,,,,,,,,,,,,,,,,,,,,,,1.000000000,0.000000000,0.000000000,0.000000000,-3.849221934,1.000000000
1732719232.847915,,,,,,,,,,,,,,,,,,,0.000000000,0.000000000,0.000000000,2.006331682,0.000000000,0.000000000,,,,,,,,,,,,
1732719232.847988,,,,,,,0.000000000,0.000000000,0.000000000,-1.378810167,0.000000000,0.000000000,,,,,,,,,,,,,,,,,,,,,,,,
1732719232.851801,,,,,,,,,,,,,0.000000000,0.000000000,-0.258783579,0.399119705,0.096357189,0.000000000,,,,,,,,,,,,,,,,,,
1732719232.851850,62.470062256,6.240214825,0.025532249,0.116569243,0.000000000,0.031149343,,,,,,,,,,,,,,,,,,,,,,,,,,,,,,
1732719232.864069,,,,,,,,,,,,,,,,,,,,,,,,,1.000000000,0.000000000,0.000000000,0.000000000,-4.099552212,1.000000000,,,,,,
1732719232.890248,,,,,,,,,,,,,,,,,,,,,,,,,,,,,,,1.000000000,0.000000000,0.000000000,0.000000000,-3.713323637,1.000000000
1732719232.949641,,,,,,,,,,,,,,,,,,,0.000000000,0.000000000,0.000000000,2.006331682,0.000000000,0.000000000,,,,,,,,,,,,
1732719232.949717,,,,,,,0.000000000,0.000000000,0.000000000,-1.378810167,0.000000000,0.000000000,,,,,,,,,,,,,,,,,,,,,,,,
1732719232.956441,,,,,,,,,,,,,0.000000000,0.000000000,-0.255640030,0.399312913,0.094580822,0.000000000,,,,,,,,,,,,,,,,,,
1732719232.956512,62.470062256,6.240214825,0.025044685,0.093509711,0.000000000,0.030554516,,,,,,,,,,,,,,,,,,,,,,,,,,,,,,
1732719232.963983,,,,,,,,,,,,,,,,,,,,,,,,,1.000000000,0.000000000,0.000000000,0.000000000,-3.970809354,1.000000000,,,,,,
1732719232.991286,,,,,,,,,,,,,,,,,,,,,,,,,,,,,,,1.000000000,0.000000000,0.000000000,0.000000000,-3.573392074,1.000000000
1732719233.049944,,,,,,,,,,,,,,,,,,,0.000000000,0.000000000,0.000000000,2.006331682,0.000000000,0.000000000,,,,,,,,,,,,
1732719233.050021,,,,,,,0.000000000,0.000000000,0.000000000,-1.378810167,0.000000000,0.000000000,,,,,,,,,,,,,,,,,,,,,,,,
1732719233.053593,,,,,,,,,,,,,0.000000000,0.000000000,-0.252514899,0.400222808,0.093230858,0.000000000,,,,,,,,,,,,,,,,,,
1732719233.053662,62.470062256,6.240215302,0.024819987,0.070740215,0.000000000,0.030280385,,,,,,,,,,,,,,,,,,,,,,,,,,,,,,
1732719233.064001,,,,,,,,,,,,,,,,,,,,,,,,,1.000000000,0.000000000,0.000000000,0.000000000,-3.838336927,1.000000000,,,,,,
1732719233.088928,,,,,,,,,,,,,,,,,,,,,,,,,,,,,,,1.000000000,0.000000000,0.000000000,0.000000000,-3.431616980,1.000000000
1732719233.148219,,,,,,,0.000000000,0.000000000,0.000000000,-1.378810167,0.000000000,0.000000000,,,,,,,,,,,,,,,,,,,,,,,,
1732719233.150178,,,,,,,,,,,,,,,,,,,0.000000000,0.000000000,0.000000000,2.006331682,0.000000000,0.000000000,,,,,,,,,,,,
1732719233.152649,62.470062256,6.240215778,0.024380727,0.048237257,0.000000000,0.029744485,,,,,,,,,,,,,,,,,,,,,,,,,,,,,,
1732719233.157030,,,,,,,,,,,,,0.000000000,0.000000000,-0.249410346,0.401013881,0.091386929,0.000000000,,,,,,,,,,,,,,,,,,
1732719233.163991,,,,,,,,,,,,,,,,,,,,,,,,,1.000000000,0.000000000,0.000000000,0.000000000,-3.702763611,1.000000000,,,,,,
1732719233.187806,,,,,,,,,,,,,,,,,,,,,,,,,,,,,,,1.000000000,0.000000000,0.000000000,0.000000000,-3.286108221,1.000000000
1732719233.249558,,,,,,,,,,,,,,,,,,,0.000000000,0.000000000,0.000000000,2.006331682,0.000000000,0.000000000,,,,,,,,,,,,
1732719233.249616,,,,,,,0.000000000,0.000000000,0.000000000,-1.378810167,0.000000000,0.000000000,,,,,,,,,,,,,,,,,,,,,,,,
1732719233.254195,,,,,,,,,,,,,0.000000000,0.000000000,-0.246327952,0.402086228,0.089508519,0.000000000,,,,,,,,,,,,,,,,,,
1732719233.254277,62.470062256,6.240215778,0.024026038,0.026007064,0.000000000,0.029311765,,,,,,,,,,,,,,,,,,,,,,,,,,,,,,
1732719233.264038,,,,,,,,,,,,,,,,,,,,,,,,,1.000000000,0.000000000,0.000000000,0.000000000,-3.563878481,1.000000000,,,,,,
1732719233.287695,,,,,,,,,,,,,,,,,,,,,,,,,,,,,,,1.000000000,0.000000000,0.000000000,0.000000000,-3.133629604,1.000000000
1732719233.355021,62.470062256,6.240216255,0.023611810,0.004041459,0.000000000,0.028806409,,,,,,,,,,,,,,,,,,,,,,,,,,,,,,
1732719233.355092,,,,,,,0.000000000,0.000000000,0.000000000,-1.378810167,0.000000000,0.000000000,,,,,,,,,,,,,,,,,,,,,,,,
1732719233.355424,,,,,,,,,,,,,,,,,,,0.000000000,0.000000000,0.000000000,2.006331682,0.000000000,0.000000000,,,,,,,,,,,,
1732719233.355484,,,,,,,,,,,,,0.000000000,0.000000000,-0.243267864,0.403293878,0.088004440,0.000000000,,,,,,,,,,,,,,,,,,
1732719233.363980,,,,,,,,,,,,,,,,,,,,,,,,,1.000000000,0.000000000,0.000000000,0.000000000,-3.420462189,1.000000000,,,,,,
1732719233.389018,,,,,,,,,,,,,,,,,,,,,,,,,,,,,,,1.000000000,0.000000000,0.000000000,0.000000000,-2.974255984,1.000000000
