__time,/eta_hat/lat,/eta_hat/lon,/eta_hat/phi,/eta_hat/psi,/eta_hat/theta,/eta_hat/z,/eta_setpoint/lat,/eta_setpoint/lon,/eta_setpoint/phi,/eta_setpoint/psi,/eta_setpoint/theta,/eta_setpoint/z,/nu_hat/p,/nu_hat/q,/nu_hat/r,/nu_hat/u,/nu_hat/v,/nu_hat/w,/nu_setpoint/p,/nu_setpoint/q,/nu_setpoint/r,/nu_setpoint/u,/nu_setpoint/v,/nu_setpoint/w,/thruster_1_feedback/active,/thruster_1_feedback/azimuth_deg,/thruster_1_feedback/error,/thruster_1_feedback/pitch,/thruster_1_feedback/rps,/thruster_1_feedback/thruster_id,/thruster_1_setpoints/active,/thruster_1_setpoints/azimuth_deg,/thruster_1_setpoints/error,/thruster_1_setpoints/pitch,/thruster_1_setpoints/rps,/thruster_1_setpoints/thruster_id,/thruster_2_feedback/active,/thruster_2_feedback/azimuth_deg,/thruster_2_feedback/error,/thruster_2_feedback/pitch,/thruster_2_feedback/rps,/thruster_2_feedback/thruster_id,/thruster_2_setpoints/active,/thruster_2_setpoints/azimuth_deg,/thruster_2_setpoints/error,/thruster_2_setpoints/pitch,/thruster_2_setpoints/rps,/thruster_2_setpoints/thruster_id
1732792747.168778,,,,,,,,,,,,,0.000000000,0.000000000,-0.060995039,0.204011485,0.123927392,0.000000000,,,,,,,,,,,,,,,,,,,,,,,,,,,,,,
1732792747.168804,62.469944000,6.239815712,0.025992472,-2.196092367,0.000000000,0.031710815,,,,,,,,,,,,,,,,,,,,,,,,,,,,,,,,,,,,,,,,,,
1732792747.254826,,,,,,,,,,,,,,,,,,,,,,,,,,,,,,,,,,,,,1.000000000,0.000000000,0.000000000,0.000000000,1.583333333,2.000000000,,,,,,
1732792747.254868,,,,,,,,,,,,,,,,,,,,,,,,,1.000000000,0.000000000,0.000000000,0.000000000,1.200000000,1.000000000,,,,,,,,,,,,,,,,,,
1732792747.254890,,,,,,,,,,,,,,,,,,,0.000000000,0.000000000,0.000000000,0.051444400,0.000000000,0.000000000,,,,,,,,,,,,,,,,,,,,,,,,
1732792747.254908,,,,,,,0.000000000,0.000000000,0.000000000,-2.460914135,0.000000000,0.000000000,,,,,,,,,,,,,,,,,,,,,,,,,,,,,,,,,,,,
1732792747.262521,,,,,,,,,,,,,,,,,,,,,,,,,,,,,,,1.000000000,0.000000000,0.000000000,0.000000000,2.317716713,1.000000000,,,,,,,,,,,,
1732792747.262815,,,,,,,,,,,,,,,,,,,,,,,,,,,,,,,,,,,,,,,,,,,1.000000000,0.000000000,0.000000000,0.000000000,1.923977879,2.000000000
1732792747.268654,,,,,,,,,,,,,0.000000000,0.000000000,-0.060276758,0.205693707,0.123974763,0.000000000,,,,,,,,,,,,,,,,,,,,,,,,,,,,,,
1732792747.268713,62.469944000,6.239815235,0.000000000,-2.202120066,0.000000000,0.000000000,,,,,,,,,,,,,,,,,,,,,,,,,,,,,,,,,,,,,,,,,,
1732792747.350533,,,,,,,0.000000000,0.000000000,0.000000000,-2.460914135,0.000000000,0.000000000,,,,,,,,,,,,,,,,,,,,,,,,,,,,,,,,,,,,
1732792747.350729,,,,,,,,,,,,,,,,,,,0.000000000,0.000000000,0.000000000,0.051444400,0.000000000,0.000000000,,,,,,,,,,,,,,,,,,,,,,,,
1732792747.354975,,,,,,,,,,,,,,,,,,,,,,,,,,,,,,,,,,,,,1.000000000,0.000000000,0.000000000,0.000000000,1.583333333,2.000000000,,,,,,
1732792747.355042,,,,,,,,,,,,,,,,,,,,,,,,,1.000000000,0.000000000,0.000000000,0.000000000,1.200000000,1.000000000,,,,,,,,,,,,,,,,,,
1732792747.364314,62.469944000,6.239814758,0.028870910,-2.205163717,0.000000000,0.035222512,,,,,,,,,,,,,,,,,,,,,,,,,,,,,,,,,,,,,,,,,,
1732792747.364470,,,,,,,,,,,,,0.000000000,0.000000000,-0.059309412,0.235562205,0.124016441,0.000000000,,,,,,,,,,,,,,,,,,,,,,,,,,,,,,
1732792747.369351,,,,,,,,,,,,,,,,,,,,,,,,,,,,,,,1.000000000,0.000000000,0.000000000,0.000000000,6.098860928,1.000000000,,,,,,,,,,,,
1732792747.369413,,,,,,,,,,,,,,,,,,,,,,,,,,,,,,,,,,,,,,,,,,,1.000000000,0.000000000,0.000000000,0.000000000,5.925649458,2.000000000
1732792747.450915,,,,,,,,,,,,,,,,,,,,,,,,,1.000000000,0.000000000,0.000000000,0.000000000,1.978333333,1.000000000,,,,,,,,,,,,,,,,,,
1732792747.451054,,,,,,,,,,,,,,,,,,,,,,,,,,,,,,,,,,,,,1.000000000,0.000000000,0.000000000,0.000000000,1.690000000,2.000000000,,,,,,
1732792747.456743,,,,,,,0.000000000,0.000000000,0.000000000,-2.460914135,0.000000000,0.000000000,,,,,,,,,,,,,,,,,,,,,,,,,,,,,,,,,,,,
1732792747.456821,,,,,,,,,,,,,,,,,,,0.000000000,0.000000000,0.000000000,0.051444400,0.000000000,0.000000000,,,,,,,,,,,,,,,,,,,,,,,,
1732792747.462046,62.469944000,6.239813805,0.025474597,-2.208462715,0.000000000,0.031079009,,,,,,,,,,,,,,,,,,,,,,,,,,,,,,,,,,,,,,,,,,
1732792747.462441,,,,,,,,,,,,,0.000000000,0.000000000,-0.058464367,0.262662858,0.124054603,0.000000000,,,,,,,,,,,,,,,,,,,,,,,,,,,,,,
1732792747.471788,,,,,,,,,,,,,,,,,,,,,,,,,,,,,,,1.000000000,0.000000000,0.000000000,0.000000000,5.897033523,1.000000000,,,,,,,,,,,,
1732792747.471907,,,,,,,,,,,,,,,,,,,,,,,,,,,,,,,,,,,,,,,,,,,1.000000000,0.000000000,0.000000000,0.000000000,5.734129750,2.000000000
1732792747.548423,,,,,,,,,,,,,,,,,,,0.000000000,0.000000000,0.000000000,0.051444400,0.000000000,0.000000000,,,,,,,,,,,,,,,,,,,,,,,,
1732792747.548479,,,,,,,0.000000000,0.000000000,0.000000000,-2.460914135,0.000000000,0.000000000,,,,,,,,,,,,,,,,,,,,,,,,,,,,,,,,,,,,
1732792747.554256,,,,,,,,,,,,,,,,,,,,,,,,,1.000000000,0.000000000,0.000000000,0.000000000,1.978333333,1.000000000,,,,,,,,,,,,,,,,,,
1732792747.556378,,,,,,,,,,,,,,,,,,,,,,,,,,,,,,,,,,,,,1.000000000,0.000000000,0.000000000,0.000000000,1.690000000,2.000000000,,,,,,
1732792747.556714,,,,,,,,,,,,,,,,,,,,,,,,,,,,,,,1.000000000,0.000000000,0.000000000,0.000000000,5.673525083,1.000000000,,,,,,,,,,,,
1732792747.557155,,,,,,,,,,,,,,,,,,,,,,,,,,,,,,,,,,,,,,,,,,,1.000000000,0.000000000,0.000000000,0.000000000,5.510398387,2.000000000
1732792747.564630,62.469944000,6.239813805,0.000000000,-2.214241028,0.000000000,0.000000000,,,,,,,,,,,,,,,,,,,,,,,,,,,,,,,,,,,,,,,,,,
1732792747.565230,,,,,,,,,,,,,0.000000000,0.000000000,-0.057781104,0.286571920,0.123598173,0.000000000,,,,,,,,,,,,,,,,,,,,,,,,,,,,,,
1732792747.651392,,,,,,,,,,,,,,,,,,,,,,,,,,,,,,,,,,,,,1.000000000,0.000000000,0.000000000,0.000000000,1.690000000,2.000000000,,,,,,
1732792747.651440,,,,,,,,,,,,,,,,,,,,,,,,,1.000000000,0.000000000,0.000000000,0.000000000,1.978333333,1.000000000,,,,,,,,,,,,,,,,,,
1732792747.651458,,,,,,,,,,,,,,,,,,,0.000000000,0.000000000,0.000000000,0.051444400,0.000000000,0.000000000,,,,,,,,,,,,,,,,,,,,,,,,
1732792747.651473,,,,,,,0.000000000,0.000000000,0.000000000,-2.460914135,0.000000000,0.000000000,,,,,,,,,,,,,,,,,,,,,,,,,,,,,,,,,,,,
1732792747.656491,,,,,,,,,,,,,,,,,,,,,,,,,,,,,,,1.000000000,0.000000000,0.000000000,0.000000000,5.452432047,1.000000000,,,,,,,,,,,,
1732792747.659945,,,,,,,,,,,,,,,,,,,,,,,,,,,,,,,,,,,,,,,,,,,1.000000000,0.000000000,0.000000000,0.000000000,5.244494470,2.000000000
1732792747.663909,,,,,,,,,,,,,0.000000000,0.000000000,-0.056834504,0.307621270,0.123626016,0.000000000,,,,,,,,,,,,,,,,,,,,,,,,,,,,,,
1732792747.663973,62.469944000,6.239812851,0.032963339,-2.216628075,0.000000000,0.040215276,,,,,,,,,,,,,,,,,,,,,,,,,,,,,,,,,,,,,,,,,,
1732792747.748957,,,,,,,,,,,,,,,,,,,,,,,,,,,,,,,,,,,,,1.000000000,0.000000000,0.000000000,0.000000000,1.690000000,2.000000000,,,,,,
1732792747.749074,,,,,,,,,,,,,,,,,,,,,,,,,1.000000000,0.000000000,0.000000000,0.000000000,1.978333333,1.000000000,,,,,,,,,,,,,,,,,,
1732792747.753756,,,,,,,0.000000000,0.000000000,0.000000000,-2.460914135,0.000000000,0.000000000,,,,,,,,,,,,,,,,,,,,,,,,,,,,,,,,,,,,
1732792747.753918,,,,,,,,,,,,,,,,,,,0.000000000,0.000000000,0.000000000,0.051444400,0.000000000,0.000000000,,,,,,,,,,,,,,,,,,,,,,,,
1732792747.760863,,,,,,,,,,,,,,,,,,,,,,,,,,,,,,,1.000000000,0.000000000,0.000000000,0.000000000,5.185332785,1.000000000,,,,,,,,,,,,
1732792747.761381,,,,,,,,,,,,,,,,,,,,,,,,,,,,,,,,,,,,,,,,,,,1.000000000,0.000000000,0.000000000,0.000000000,4.993388123,2.000000000
1732792747.765446,62.469944000,6.239812374,0.032173768,-2.219013453,0.000000000,0.039251998,,,,,,,,,,,,,,,,,,,,,,,,,,,,,,,,,,,,,,,,,,
1732792747.768656,,,,,,,,,,,,,0.000000000,0.000000000,-0.056028850,0.325600028,0.123651184,0.000000000,,,,,,,,,,,,,,,,,,,,,,,,,,,,,,
1732792747.851198,,,,,,,,,,,,,,,,,,,,,,,,,,,,,,,,,,,,,1.000000000,0.000000000,0.000000000,0.000000000,1.690000000,2.000000000,,,,,,
1732792747.851322,,,,,,,,,,,,,,,,,,,,,,,,,1.000000000,0.000000000,0.000000000,0.000000000,1.978333333,1.000000000,,,,,,,,,,,,,,,,,,
1732792747.856697,,,,,,,0.000000000,0.000000000,0.000000000,-2.460914135,0.000000000,0.000000000,,,,,,,,,,,,,,,,,,,,,,,,,,,,,,,,,,,,
1732792747.859514,,,,,,,,,,,,,,,,,,,,,,,,,,,,,,,1.000000000,0.000000000,0.000000000,0.000000000,4.916830413,1.000000000,,,,,,,,,,,,
1732792747.860235,,,,,,,,,,,,,,,,,,,,,,,,,,,,,,,,,,,,,,,,,,,1.000000000,0.000000000,0.000000000,0.000000000,4.732855543,2.000000000
1732792747.865653,,,,,,,,,,,,,,,,,,,0.000000000,0.000000000,0.000000000,0.051444400,0.000000000,0.000000000,,,,,,,,,,,,,,,,,,,,,,,,
1732792747.869312,62.469944000,6.239811897,0.033983257,-2.221146345,0.000000000,0.041459572,,,,,,,,,,,,,,,,,,,,,,,,,,,,,,,,,,,,,,,,,,
1732792747.871653,,,,,,,,,,,,,0.000000000,0.000000000,-0.055312164,0.340640754,0.123673767,0.000000000,,,,,,,,,,,,,,,,,,,,,,,,,,,,,,
1732792747.948401,,,,,,,,,,,,,,,,,,,,,,,,,1.000000000,0.000000000,0.000000000,0.000000000,1.978333333,1.000000000,,,,,,,,,,,,,,,,,,
1732792747.948771,,,,,,,,,,,,,,,,,,,,,,,,,,,,,,,,,,,,,1.000000000,0.000000000,0.000000000,0.000000000,1.690000000,2.000000000,,,,,,
1732792747.949698,,,,,,,0.000000000,0.000000000,0.000000000,-2.460914135,0.000000000,0.000000000,,,,,,,,,,,,,,,,,,,,,,,,,,,,,,,,,,,,
1732792747.954527,,,,,,,,,,,,,,,,,,,0.000000000,0.000000000,0.000000000,0.051444400,0.000000000,0.000000000,,,,,,,,,,,,,,,,,,,,,,,,
1732792747.956200,,,,,,,,,,,,,,,,,,,,,,,,,,,,,,,1.000000000,0.000000000,0.000000000,0.000000000,4.652465813,1.000000000,,,,,,,,,,,,
1732792747.958334,,,,,,,,,,,,,,,,,,,,,,,,,,,,,,,,,,,,,,,,,,,1.000000000,0.000000000,0.000000000,0.000000000,4.475199765,2.000000000
1732792747.960505,,,,,,,,,,,,,0.000000000,0.000000000,-0.054685306,0.353557587,0.121822380,0.000000000,,,,,,,,,,,,,,,,,,,,,,,,,,,,,,
1732792747.960558,62.469944000,6.239811420,0.032643341,-2.223350525,0.000000000,0.039824877,,,,,,,,,,,,,,,,,,,,,,,,,,,,,,,,,,,,,,,,,,
1732792748.054629,,,,,,,0.000000000,0.000000000,0.000000000,-2.460914135,0.000000000,0.000000000,,,,,,,,,,,,,,,,,,,,,,,,,,,,,,,,,,,,
1732792748.055187,,,,,,,,,,,,,,,,,,,0.000000000,0.000000000,0.000000000,0.051444400,0.000000000,0.000000000,,,,,,,,,,,,,,,,,,,,,,,,
1732792748.065936,,,,,,,,,,,,,,,,,,,,,,,,,,,,,,,1.000000000,0.000000000,0.000000000,0.000000000,4.391780387,1.000000000,,,,,,,,,,,,
1732792748.066003,,,,,,,,,,,,,,,,,,,,,,,,,,,,,,,,,,,,,,,,,,,1.000000000,0.000000000,0.000000000,0.000000000,4.213982867,2.000000000
1732792748.066036,62.469944000,6.239810467,0.000000000,-2.228775263,0.000000000,0.000000000,,,,,,,,,,,,,,,,,,,,,,,,,,,,,,,,,,,,,,,,,,
1732792748.071439,,,,,,,,,,,,,,,,,,,,,,,,,,,,,,,,,,,,,1.000000000,0.000000000,0.000000000,0.000000000,1.690000000,2.000000000,,,,,,
1732792748.071490,,,,,,,,,,,,,,,,,,,,,,,,,1.000000000,0.000000000,0.000000000,0.000000000,1.978333333,1.000000000,,,,,,,,,,,,,,,,,,
1732792748.072775,,,,,,,,,,,,,0.000000000,0.000000000,-0.054245688,0.363355964,0.121836007,0.000000000,,,,,,,,,,,,,,,,,,,,,,,,,,,,,,
1732792748.154712,,,,,,,,,,,,,,,,,,,,,,,,,,,,,,,,,,,,,1.000000000,0.000000000,0.000000000,0.000000000,1.690000000,2.000000000,,,,,,
1732792748.154753,,,,,,,,,,,,,,,,,,,,,,,,,1.000000000,0.000000000,0.000000000,0.000000000,1.978333333,1.000000000,,,,,,,,,,,,,,,,,,
1732792748.155707,,,,,,,0.000000000,0.000000000,0.000000000,-2.460914135,0.000000000,0.000000000,,,,,,,,,,,,,,,,,,,,,,,,,,,,,,,,,,,,
1732792748.156575,,,,,,,,,,,,,,,,,,,,,,,,,,,,,,,1.000000000,0.000000000,0.000000000,0.000000000,4.195634429,1.000000000,,,,,,,,,,,,
1732792748.157723,,,,,,,,,,,,,,,,,,,,,,,,,,,,,,,,,,,,,,,,,,,1.000000000,0.000000000,0.000000000,0.000000000,3.945211151,2.000000000
1732792748.161723,,,,,,,,,,,,,,,,,,,0.000000000,0.000000000,0.000000000,0.051444400,0.000000000,0.000000000,,,,,,,,,,,,,,,,,,,,,,,,
1732792748.165637,,,,,,,,,,,,,0.000000000,0.000000000,-0.053461339,0.371464223,0.120186627,0.000000000,,,,,,,,,,,,,,,,,,,,,,,,,,,,,,
1732792748.165688,62.469944000,6.239810467,0.040062297,-2.230115175,0.000000000,0.048876002,,,,,,,,,,,,,,,,,,,,,,,,,,,,,,,,,,,,,,,,,,
1732792748.250089,,,,,,,,,,,,,,,,,,,,,,,,,1.000000000,0.000000000,0.000000000,0.000000000,3.528333333,1.000000000,,,,,,,,,,,,,,,,,,
1732792748.250136,,,,,,,,,,,,,,,,,,,,,,,,,,,,,,,,,,,,,1.000000000,0.000000000,0.000000000,0.000000000,2.240000000,2.000000000,,,,,,
1732792748.251439,,,,,,,0.000000000,0.000000000,0.000000000,-2.460914135,0.000000000,0.000000000,,,,,,,,,,,,,,,,,,,,,,,,,,,,,,,,,,,,
1732792748.252109,,,,,,,,,,,,,,,,,,,0.000000000,0.000000000,0.000000000,0.051444400,0.000000000,0.000000000,,,,,,,,,,,,,,,,,,,,,,,,
1732792748.254977,,,,,,,,,,,,,,,,,,,,,,,,,,,,,,,1.000000000,0.000000000,0.000000000,0.000000000,3.963104981,1.000000000,,,,,,,,,,,,
1732792748.255303,,,,,,,,,,,,,,,,,,,,,,,,,,,,,,,,,,,,,,,,,,,1.000000000,0.000000000,0.000000000,0.000000000,3.739741281,2.000000000
1732792748.260327,62.469944000,6.239809990,0.042693954,-2.231127024,0.000000000,0.052086625,,,,,,,,,,,,,,,,,,,,,,,,,,,,,,,,,,,,,,,,,,
1732792748.261303,,,,,,,,,,,,,0.000000000,0.000000000,-0.052813962,0.377602100,0.118709877,0.000000000,,,,,,,,,,,,,,,,,,,,,,,,,,,,,,
1732792748.347921,,,,,,,,,,,,,,,,,,,,,,,,,,,,,,,,,,,,,1.000000000,0.000000000,0.000000000,0.000000000,2.240000000,2.000000000,,,,,,
1732792748.347998,,,,,,,,,,,,,,,,,,,,,,,,,1.000000000,0.000000000,0.000000000,0.000000000,3.528333333,1.000000000,,,,,,,,,,,,,,,,,,
1732792748.350693,,,,,,,,,,,,,,,,,,,0.000000000,0.000000000,0.000000000,0.051444400,0.000000000,0.000000000,,,,,,,,,,,,,,,,,,,,,,,,
1732792748.350742,,,,,,,0.000000000,0.000000000,0.000000000,-2.460914135,0.000000000,0.000000000,,,,,,,,,,,,,,,,,,,,,,,,,,,,,,,,,,,,
1732792748.356789,,,,,,,,,,,,,,,,,,,,,,,,,,,,,,,1.000000000,0.000000000,0.000000000,0.000000000,3.757746791,1.000000000,,,,,,,,,,,,
1732792748.356840,,,,,,,,,,,,,,,,,,,,,,,,,,,,,,,,,,,,,,,,,,,1.000000000,0.000000000,0.000000000,0.000000000,3.560457678,2.000000000
1732792748.364348,62.469944000,6.239809513,0.043880478,-2.231967926,0.000000000,0.053534184,,,,,,,,,,,,,,,,,,,,,,,,,,,,,,,,,,,,,,,,,,
1732792748.368829,,,,,,,,,,,,,0.000000000,0.000000000,-0.052288063,0.382028729,0.117325865,0.000000000,,,,,,,,,,,,,,,,,,,,,,,,,,,,,,
1732792748.447702,,,,,,,,,,,,,,,,,,,,,,,,,1.000000000,0.000000000,0.000000000,0.000000000,3.528333333,1.000000000,,,,,,,,,,,,,,,,,,
1732792748.447908,,,,,,,,,,,,,,,,,,,,,,,,,,,,,,,,,,,,,1.000000000,0.000000000,0.000000000,0.000000000,2.240000000,2.000000000,,,,,,
1732792748.454791,,,,,,,,,,,,,,,,,,,,,,,,,,,,,,,1.000000000,0.000000000,0.000000000,0.000000000,3.583354314,1.000000000,,,,,,,,,,,,
1732792748.455142,,,,,,,,,,,,,,,,,,,,,,,,,,,,,,,,,,,,,,,,,,,1.000000000,0.000000000,0.000000000,0.000000000,3.408664897,2.000000000
1732792748.458718,,,,,,,0.000000000,0.000000000,0.000000000,-2.460914135,0.000000000,0.000000000,,,,,,,,,,,,,,,,,,,,,,,,,,,,,,,,,,,,
1732792748.458863,,,,,,,,,,,,,,,,,,,0.000000000,0.000000000,0.000000000,0.051444400,0.000000000,0.000000000,,,,,,,,,,,,,,,,,,,,,,,,
1732792748.473766,,,,,,,,,,,,,0.000000000,0.000000000,-0.051859193,0.385149568,0.116087869,0.000000000,,,,,,,,,,,,,,,,,,,,,,,,,,,,,,
1732792748.473811,62.469940186,6.239809036,0.044790853,-2.232674599,0.000000000,0.054644842,,,,,,,,,,,,,,,,,,,,,,,,,,,,,,,,,,,,,,,,,,
1732792748.553193,,,,,,,,,,,,,,,,,,,,,,,,,,,,,,,,,,,,,1.000000000,0.000000000,0.000000000,0.000000000,2.240000000,2.000000000,,,,,,
1732792748.553250,,,,,,,,,,,,,,,,,,,,,,,,,1.000000000,0.000000000,0.000000000,0.000000000,3.528333333,1.000000000,,,,,,,,,,,,,,,,,,
1732792748.554165,,,,,,,0.000000000,0.000000000,0.000000000,-2.460914135,0.000000000,0.000000000,,,,,,,,,,,,,,,,,,,,,,,,,,,,,,,,,,,,
1732792748.554287,,,,,,,,,,,,,,,,,,,0.000000000,0.000000000,0.000000000,0.051444400,0.000000000,0.000000000,,,,,,,,,,,,,,,,,,,,,,,,
1732792748.563293,,,,,,,,,,,,,,,,,,,,,,,,,,,,,,,1.000000000,0.000000000,0.000000000,0.000000000,3.436060723,1.000000000,,,,,,,,,,,,
1732792748.563348,,,,,,,,,,,,,,,,,,,,,,,,,,,,,,,,,,,,,,,,,,,1.000000000,0.000000000,0.000000000,0.000000000,3.280806902,2.000000000
1732792748.563949,,,,,,,,,,,,,0.000000000,0.000000000,-0.051506676,0.387300432,0.115044445,0.000000000,,,,,,,,,,,,,,,,,,,,,,,,,,,,,,
1732792748.563984,62.469940186,6.239808559,0.045742307,-2.233251095,0.000000000,0.055805612,,,,,,,,,,,,,,,,,,,,,,,,,,,,,,,,,,,,,,,,,,
1732792748.648934,,,,,,,,,,,,,,,,,,,,,,,,,1.000000000,0.000000000,0.000000000,0.000000000,3.528333333,1.000000000,,,,,,,,,,,,,,,,,,
1732792748.649193,,,,,,,,,,,,,,,,,,,,,,,,,,,,,,,,,,,,,1.000000000,0.000000000,0.000000000,0.000000000,2.240000000,2.000000000,,,,,,
1732792748.654632,,,,,,,0.000000000,0.000000000,0.000000000,-2.460914135,0.000000000,0.000000000,,,,,,,,,,,,,,,,,,,,,,,,,,,,,,,,,,,,
1732792748.654726,,,,,,,,,,,,,,,,,,,0.000000000,0.000000000,0.000000000,0.051444400,0.000000000,0.000000000,,,,,,,,,,,,,,,,,,,,,,,,
1732792748.657905,,,,,,,,,,,,,,,,,,,,,,,,,,,,,,,1.000000000,0.000000000,0.000000000,0.000000000,3.310782169,1.000000000,,,,,,,,,,,,
1732792748.658100,,,,,,,,,,,,,,,,,,,,,,,,,,,,,,,,,,,,,,,,,,,1.000000000,0.000000000,0.000000000,0.000000000,3.172736200,2.000000000
1732792748.664611,62.469940186,6.239808083,0.048692439,-2.233502626,0.000000000,0.059404776,,,,,,,,,,,,,,,,,,,,,,,,,,,,,,,,,,,,,,,,,,
1732792748.665206,,,,,,,,,,,,,0.000000000,0.000000000,-0.051207654,0.388594836,0.114114001,0.000000000,,,,,,,,,,,,,,,,,,,,,,,,,,,,,,
1732792748.748277,,,,,,,,,,,,,,,,,,,,,,,,,1.000000000,0.000000000,0.000000000,0.000000000,3.528333333,1.000000000,,,,,,,,,,,,,,,,,,
1732792748.748786,,,,,,,,,,,,,,,,,,,,,,,,,,,,,,,,,,,,,1.000000000,0.000000000,0.000000000,0.000000000,2.240000000,2.000000000,,,,,,
1732792748.754775,,,,,,,,,,,,,,,,,,,,,,,,,,,,,,,1.000000000,0.000000000,0.000000000,0.000000000,3.204486924,1.000000000,,,,,,,,,,,,
1732792748.757972,,,,,,,,,,,,,,,,,,,,,,,,,,,,,,,,,,,,,,,,,,,1.000000000,0.000000000,0.000000000,0.000000000,3.087771414,2.000000000
1732792748.758016,,,,,,,,,,,,,,,,,,,0.000000000,0.000000000,0.000000000,0.051444400,0.000000000,0.000000000,,,,,,,,,,,,,,,,,,,,,,,,
1732792748.758035,,,,,,,0.000000000,0.000000000,0.000000000,-2.460914135,0.000000000,0.000000000,,,,,,,,,,,,,,,,,,,,,,,,,,,,,,,,,,,,
1732792748.766774,62.469940186,6.239807606,0.048158608,-2.233784676,0.000000000,0.058753502,,,,,,,,,,,,,,,,,,,,,,,,,,,,,,,,,,,,,,,,,,
1732792748.768519,,,,,,,,,,,,,0.000000000,0.000000000,-0.050979197,0.389215678,0.113285773,0.000000000,,,,,,,,,,,,,,,,,,,,,,,,,,,,,,
1732792748.849347,,,,,,,,,,,,,,,,,,,,,,,,,1.000000000,0.000000000,0.000000000,0.000000000,3.528333333,1.000000000,,,,,,,,,,,,,,,,,,
1732792748.849560,,,,,,,,,,,,,,,,,,,,,,,,,,,,,,,,,,,,,1.000000000,0.000000000,0.000000000,0.000000000,2.240000000,2.000000000,,,,,,
1732792748.859783,,,,,,,0.000000000,0.000000000,0.000000000,-2.460914135,0.000000000,0.000000000,,,,,,,,,,,,,,,,,,,,,,,,,,,,,,,,,,,,
1732792748.863543,,,,,,,,,,,,,,,,,,,0.000000000,0.000000000,0.000000000,0.051444400,0.000000000,0.000000000,,,,,,,,,,,,,,,,,,,,,,,,
1732792748.863941,62.469940186,6.239807129,0.046904776,-2.234174490,0.000000000,0.057223827,,,,,,,,,,,,,,,,,,,,,,,,,,,,,,,,,,,,,,,,,,
1732792748.865350,,,,,,,,,,,,,0.000000000,0.000000000,-0.050802235,0.389389396,0.112612791,0.000000000,,,,,,,,,,,,,,,,,,,,,,,,,,,,,,
1732792748.865479,,,,,,,,,,,,,,,,,,,,,,,,,,,,,,,1.000000000,0.000000000,0.000000000,0.000000000,3.119260839,1.000000000,,,,,,,,,,,,
1732792748.865572,,,,,,,,,,,,,,,,,,,,,,,,,,,,,,,,,,,,,,,,,,,1.000000000,0.000000000,0.000000000,0.000000000,3.017501443,2.000000000
1732792748.947548,,,,,,,,,,,,,,,,,,,,,,,,,1.000000000,0.000000000,0.000000000,0.000000000,3.528333333,1.000000000,,,,,,,,,,,,,,,,,,
1732792748.948252,,,,,,,,,,,,,,,,,,,,,,,,,,,,,,,,,,,,,1.000000000,0.000000000,0.000000000,0.000000000,2.240000000,2.000000000,,,,,,
1732792748.952456,,,,,,,,,,,,,,,,,,,0.000000000,0.000000000,0.000000000,0.051444400,0.000000000,0.000000000,,,,,,,,,,,,,,,,,,,,,,,,
1732792748.952496,,,,,,,0.000000000,0.000000000,0.000000000,-2.460914135,0.000000000,0.000000000,,,,,,,,,,,,,,,,,,,,,,,,,,,,,,,,,,,,
1732792748.959308,,,,,,,,,,,,,,,,,,,,,,,,,,,,,,,1.000000000,0.000000000,0.000000000,0.000000000,3.049924842,1.000000000,,,,,,,,,,,,
1732792748.961724,,,,,,,,,,,,,,,,,,,,,,,,,,,,,,,,,,,,,,,,,,,1.000000000,0.000000000,0.000000000,0.000000000,2.955998739,2.000000000
1732792748.973560,,,,,,,,,,,,,0.000000000,0.000000000,-0.050648928,0.389131725,0.112017207,0.000000000,,,,,,,,,,,,,,,,,,,,,,,,,,,,,,
1732792748.973622,62.469940186,6.239806652,0.047364138,-2.234503031,0.000000000,0.057784252,,,,,,,,,,,,,,,,,,,,,,,,,,,,,,,,,,,,,,,,,,
1732792749.048485,,,,,,,,,,,,,,,,,,,,,,,,,1.000000000,0.000000000,0.000000000,0.000000000,3.528333333,1.000000000,,,,,,,,,,,,,,,,,,
1732792749.048712,,,,,,,,,,,,,,,,,,,,,,,,,,,,,,,,,,,,,1.000000000,0.000000000,0.000000000,0.000000000,2.240000000,2.000000000,,,,,,
1732792749.054412,,,,,,,0.000000000,0.000000000,0.000000000,-2.460914135,0.000000000,0.000000000,,,,,,,,,,,,,,,,,,,,,,,,,,,,,,,,,,,,
1732792749.060797,,,,,,,,,,,,,,,,,,,0.000000000,0.000000000,0.000000000,0.051444400,0.000000000,0.000000000,,,,,,,,,,,,,,,,,,,,,,,,
1732792749.061672,,,,,,,,,,,,,,,,,,,,,,,,,,,,,,,1.000000000,0.000000000,0.000000000,0.000000000,2.993680273,1.000000000,,,,,,,,,,,,
1732792749.061875,,,,,,,,,,,,,,,,,,,,,,,,,,,,,,,,,,,,,,,,,,,1.000000000,0.000000000,0.000000000,0.000000000,2.907216796,2.000000000
1732792749.066174,62.469940186,6.239806175,0.048181377,-2.234736204,0.000000000,0.058781277,,,,,,,,,,,,,,,,,,,,,,,,,,,,,,,,,,,,,,,,,,
1732792749.068888,,,,,,,,,,,,,0.000000000,0.000000000,-0.050514471,0.388620257,0.111554667,0.000000000,,,,,,,,,,,,,,,,,,,,,,,,,,,,,,
1732792749.147657,,,,,,,,,,,,,,,,,,,,,,,,,1.000000000,0.000000000,0.000000000,0.000000000,3.528333333,1.000000000,,,,,,,,,,,,,,,,,,
1732792749.153106,,,,,,,,,,,,,,,,,,,,,,,,,,,,,,,,,,,,,1.000000000,0.000000000,0.000000000,0.000000000,2.240000000,2.000000000,,,,,,
1732792749.153356,,,,,,,0.000000000,0.000000000,0.000000000,-2.460914135,0.000000000,0.000000000,,,,,,,,,,,,,,,,,,,,,,,,,,,,,,,,,,,,
1732792749.157640,,,,,,,,,,,,,,,,,,,0.000000000,0.000000000,0.000000000,0.051444400,0.000000000,0.000000000,,,,,,,,,,,,,,,,,,,,,,,,
1732792749.163657,,,,,,,,,,,,,,,,,,,,,,,,,,,,,,,1.000000000,0.000000000,0.000000000,0.000000000,2.944788719,1.000000000,,,,,,,,,,,,
1732792749.163922,,,,,,,,,,,,,,,,,,,,,,,,,,,,,,,,,,,,,,,,,,,1.000000000,0.000000000,0.000000000,0.000000000,2.866561106,2.000000000
1732792749.170131,62.469940186,6.239805698,0.049269654,-2.234848976,0.000000000,0.060108978,,,,,,,,,,,,,,,,,,,,,,,,,,,,,,,,,,,,,,,,,,
1732792749.171285,,,,,,,,,,,,,0.000000000,0.000000000,-0.050397716,0.387830585,0.111149669,0.000000000,,,,,,,,,,,,,,,,,,,,,,,,,,,,,,
1732792749.260560,,,,,,,,,,,,,,,,,,,,,,,,,,,,,,,,,,,,,1.000000000,0.000000000,0.000000000,0.000000000,2.240000000,2.000000000,,,,,,
1732792749.260627,,,,,,,,,,,,,,,,,,,,,,,,,1.000000000,0.000000000,0.000000000,0.000000000,3.528333333,1.000000000,,,,,,,,,,,,,,,,,,
1732792749.260649,,,,,,,,,,,,,,,,,,,0.000000000,0.000000000,0.000000000,0.051444400,0.000000000,0.000000000,,,,,,,,,,,,,,,,,,,,,,,,
1732792749.260666,,,,,,,0.000000000,0.000000000,0.000000000,-2.460914135,0.000000000,0.000000000,,,,,,,,,,,,,,,,,,,,,,,,,,,,,,,,,,,,
1732792749.262886,,,,,,,,,,,,,,,,,,,,,,,,,,,,,,,1.000000000,0.000000000,0.000000000,0.000000000,2.904100792,1.000000000,,,,,,,,,,,,
1732792749.262927,,,,,,,,,,,,,,,,,,,,,,,,,,,,,,,,,,,,,,,,,,,1.000000000,0.000000000,0.000000000,0.000000000,2.835653734,2.000000000
1732792749.270626,,,,,,,,,,,,,0.000000000,0.000000000,-0.050300773,0.386829287,0.110796846,0.000000000,,,,,,,,,,,,,,,,,,,,,,,,,,,,,,
1732792749.271400,62.469940186,6.239805222,0.050255548,-2.234853506,0.000000000,0.061311770,,,,,,,,,,,,,,,,,,,,,,,,,,,,,,,,,,,,,,,,,,
1732792749.347483,,,,,,,,,,,,,,,,,,,,,,,,,1.000000000,0.000000000,0.000000000,0.000000000,3.528333333,1.000000000,,,,,,,,,,,,,,,,,,
1732792749.347729,,,,,,,,,,,,,,,,,,,,,,,,,,,,,,,,,,,,,1.000000000,0.000000000,0.000000000,0.000000000,2.240000000,2.000000000,,,,,,
1732792749.355772,,,,,,,,,,,,,,,,,,,0.000000000,0.000000000,0.000000000,0.051444400,0.000000000,0.000000000,,,,,,,,,,,,,,,,,,,,,,,,
1732792749.355888,,,,,,,0.000000000,0.000000000,0.000000000,-2.460914135,0.000000000,0.000000000,,,,,,,,,,,,,,,,,,,,,,,,,,,,,,,,,,,,
1732792749.359139,,,,,,,,,,,,,,,,,,,,,,,,,,,,,,,1.000000000,0.000000000,0.000000000,0.000000000,2.869988307,1.000000000,,,,,,,,,,,,
1732792749.359183,,,,,,,,,,,,,,,,,,,,,,,,,,,,,,,,,,,,,,,,,,,1.000000000,0.000000000,0.000000000,0.000000000,2.812234246,2.000000000
1732792749.367840,62.469940186,6.239804745,0.000000000,-2.239896774,0.000000000,0.000000000,,,,,,,,,,,,,,,,,,,,,,,,,,,,,,,,,,,,,,,,,,
1732792749.369030,,,,,,,,,,,,,0.000000000,0.000000000,-0.050433114,0.385668218,0.110491358,0.000000000,,,,,,,,,,,,,,,,,,,,,,,,,,,,,,
1732792749.447379,,,,,,,,,,,,,,,,,,,,,,,,,1.000000000,0.000000000,0.000000000,0.000000000,3.078333333,1.000000000,,,,,,,,,,,,,,,,,,
1732792749.447558,,,,,,,,,,,,,,,,,,,,,,,,,,,,,,,,,,,,,1.000000000,0.000000000,0.000000000,0.000000000,2.988333333,2.000000000,,,,,,
1732792749.455630,,,,,,,,,,,,,,,,,,,0.000000000,0.000000000,0.000000000,0.051444400,0.000000000,0.000000000,,,,,,,,,,,,,,,,,,,,,,,,
1732792749.455671,,,,,,,0.000000000,0.000000000,0.000000000,-2.460914135,0.000000000,0.000000000,,,,,,,,,,,,,,,,,,,,,,,,,,,,,,,,,,,,
1732792749.460994,,,,,,,,,,,,,,,,,,,,,,,,,,,,,,,1.000000000,0.000000000,0.000000000,0.000000000,2.918575367,1.000000000,,,,,,,,,,,,
1732792749.461400,,,,,,,,,,,,,,,,,,,,,,,,,,,,,,,,,,,,,,,,,,,1.000000000,0.000000000,0.000000000,0.000000000,2.713454828,2.000000000
1732792749.476629,,,,,,,,,,,,,0.000000000,0.000000000,-0.050005924,0.384386212,0.110222869,0.000000000,,,,,,,,,,,,,,,,,,,,,,,,,,,,,,
1732792749.476736,62.469940186,6.239804268,0.057554532,-2.239141941,0.000000000,0.070216529,,,,,,,,,,,,,,,,,,,,,,,,,,,,,,,,,,,,,,,,,,
1732792749.551062,,,,,,,,,,,,,,,,,,,,,,,,,1.000000000,0.000000000,0.000000000,0.000000000,3.078333333,1.000000000,,,,,,,,,,,,,,,,,,
1732792749.551172,,,,,,,,,,,,,,,,,,,,,,,,,,,,,,,,,,,,,1.000000000,0.000000000,0.000000000,0.000000000,2.988333333,2.000000000,,,,,,
1732792749.557274,,,,,,,,,,,,,,,,,,,0.000000000,0.000000000,0.000000000,0.051444400,0.000000000,0.000000000,,,,,,,,,,,,,,,,,,,,,,,,
1732792749.557310,,,,,,,0.000000000,0.000000000,0.000000000,-2.460914135,0.000000000,0.000000000,,,,,,,,,,,,,,,,,,,,,,,,,,,,,,,,,,,,
1732792749.564740,,,,,,,,,,,,,,,,,,,,,,,,,,,,,,,1.000000000,0.000000000,0.000000000,0.000000000,2.866018036,1.000000000,,,,,,,,,,,,
1732792749.564797,,,,,,,,,,,,,,,,,,,,,,,,,,,,,,,,,,,,,,,,,,,1.000000000,0.000000000,0.000000000,0.000000000,2.729776074,2.000000000
1732792749.573643,62.469940186,6.239803314,0.000000000,-2.244139433,0.000000000,0.000000000,,,,,,,,,,,,,,,,,,,,,,,,,,,,,,,,,,,,,,,,,,
1732792749.573699,,,,,,,,,,,,,0.000000000,0.000000000,-0.049975179,0.383429706,0.110180482,0.000000000,,,,,,,,,,,,,,,,,,,,,,,,,,,,,,
1732792749.648691,,,,,,,,,,,,,,,,,,,,,,,,,1.000000000,0.000000000,0.000000000,0.000000000,3.078333333,1.000000000,,,,,,,,,,,,,,,,,,
1732792749.648829,,,,,,,,,,,,,,,,,,,,,,,,,,,,,,,,,,,,,1.000000000,0.000000000,0.000000000,0.000000000,2.988333333,2.000000000,,,,,,
1732792749.656022,,,,,,,,,,,,,,,,,,,0.000000000,0.000000000,0.000000000,0.051444400,0.000000000,0.000000000,,,,,,,,,,,,,,,,,,,,,,,,
1732792749.656070,,,,,,,0.000000000,0.000000000,0.000000000,-2.460914135,0.000000000,0.000000000,,,,,,,,,,,,,,,,,,,,,,,,,,,,,,,,,,,,
1732792749.671639,,,,,,,,,,,,,,,,,,,,,,,,,,,,,,,1.000000000,0.000000000,0.000000000,0.000000000,2.898709758,1.000000000,,,,,,,,,,,,
1732792749.671685,,,,,,,,,,,,,,,,,,,,,,,,,,,,,,,,,,,,,,,,,,,1.000000000,0.000000000,0.000000000,0.000000000,2.631790202,2.000000000
1732792749.671706,,,,,,,,,,,,,0.000000000,0.000000000,-0.049406160,0.383018374,0.108649530,0.000000000,,,,,,,,,,,,,,,,,,,,,,,,,,,,,,
1732792749.671724,62.469940186,6.239802837,0.064415500,-2.242638588,0.000000000,0.078586914,,,,,,,,,,,,,,,,,,,,,,,,,,,,,,,,,,,,,,,,,,
1732792749.747479,,,,,,,,,,,,,,,,,,,,,,,,,1.000000000,0.000000000,0.000000000,0.000000000,3.078333333,1.000000000,,,,,,,,,,,,,,,,,,
1732792749.747527,,,,,,,,,,,,,,,,,,,,,,,,,,,,,,,,,,,,,1.000000000,0.000000000,0.000000000,0.000000000,2.988333333,2.000000000,,,,,,
1732792749.750841,,,,,,,,,,,,,,,,,,,0.000000000,0.000000000,0.000000000,0.051444400,0.000000000,0.000000000,,,,,,,,,,,,,,,,,,,,,,,,
1732792749.750881,,,,,,,0.000000000,0.000000000,0.000000000,-2.460914135,0.000000000,0.000000000,,,,,,,,,,,,,,,,,,,,,,,,,,,,,,,,,,,,
1732792749.763949,,,,,,,,,,,,,,,,,,,,,,,,,,,,,,,1.000000000,0.000000000,0.000000000,0.000000000,2.798837630,1.000000000,,,,,,,,,,,,
1732792749.764948,,,,,,,,,,,,,,,,,,,,,,,,,,,,,,,,,,,,,,,,,,,1.000000000,0.000000000,0.000000000,0.000000000,2.636867518,2.000000000
1732792749.773593,,,,,,,,,,,,,0.000000000,0.000000000,-0.049344093,0.382243931,0.107278585,0.000000000,,,,,,,,,,,,,,,,,,,,,,,,,,,,,,
1732792749.773647,62.469940186,6.239802361,0.000000000,-2.247573137,0.000000000,0.000000000,,,,,,,,,,,,,,,,,,,,,,,,,,,,,,,,,,,,,,,,,,
1732792749.852927,,,,,,,,,,,,,,,,,,,,,,,,,1.000000000,0.000000000,0.000000000,0.000000000,3.078333333,1.000000000,,,,,,,,,,,,,,,,,,
1732792749.852974,,,,,,,0.000000000,0.000000000,0.000000000,-2.460914135,0.000000000,0.000000000,,,,,,,,,,,,,,,,,,,,,,,,,,,,,,,,,,,,
1732792749.853502,,,,,,,,,,,,,,,,,,,,,,,,,,,,,,,1.000000000,0.000000000,0.000000000,0.000000000,2.823903395,1.000000000,,,,,,,,,,,,
1732792749.853535,,,,,,,,,,,,,,,,,,,,,,,,,,,,,,,,,,,,,,,,,,,1.000000000,0.000000000,0.000000000,0.000000000,2.531755545,2.000000000
1732792749.858461,,,,,,,,,,,,,,,,,,,0.000000000,0.000000000,0.000000000,0.051444400,0.000000000,0.000000000,,,,,,,,,,,,,,,,,,,,,,,,
1732792749.858699,,,,,,,,,,,,,,,,,,,,,,,,,,,,,,,,,,,,,1.000000000,0.000000000,0.000000000,0.000000000,2.988333333,2.000000000,,,,,,
1732792749.871100,,,,,,,,,,,,,0.000000000,0.000000000,-0.048738435,0.380809367,0.107216582,0.000000000,,,,,,,,,,,,,,,,,,,,,,,,,,,,,,
1732792749.871149,62.469940186,6.239801407,0.068773568,-2.245569468,0.000000000,0.083903745,,,,,,,,,,,,,,,,,,,,,,,,,,,,,,,,,,,,,,,,,,
1732792749.953681,,,,,,,,,,,,,,,,,,,0.000000000,0.000000000,0.000000000,0.051444400,0.000000000,0.000000000,,,,,,,,,,,,,,,,,,,,,,,,
1732792749.953724,,,,,,,0.000000000,0.000000000,0.000000000,-2.460914135,0.000000000,0.000000000,,,,,,,,,,,,,,,,,,,,,,,,,,,,,,,,,,,,
1732792749.960673,,,,,,,,,,,,,,,,,,,,,,,,,,,,,,,,,,,,,1.000000000,0.000000000,0.000000000,0.000000000,2.988333333,2.000000000,,,,,,
1732792749.960727,,,,,,,,,,,,,,,,,,,,,,,,,1.000000000,0.000000000,0.000000000,0.000000000,3.078333333,1.000000000,,,,,,,,,,,,,,,,,,
1732792749.976672,,,,,,,,,,,,,,,,,,,,,,,,,,,,,,,1.000000000,0.000000000,0.000000000,0.000000000,2.748166112,1.000000000,,,,,,,,,,,,
1732792749.976726,,,,,,,,,,,,,,,,,,,,,,,,,,,,,,,,,,,,,,,,,,,1.000000000,0.000000000,0.000000000,0.000000000,2.584917674,2.000000000
1732792749.976745,,,,,,,,,,,,,0.000000000,0.000000000,-0.048408277,0.379679203,0.106009930,0.000000000,,,,,,,,,,,,,,,,,,,,,,,,,,,,,,
1732792749.976763,62.469940186,6.239800930,0.070557572,-2.243354559,0.000000000,0.086080231,,,,,,,,,,,,,,,,,,,,,,,,,,,,,,,,,,,,,,,,,,
1732792750.048200,,,,,,,,,,,,,,,,,,,,,,,,,1.000000000,0.000000000,0.000000000,0.000000000,3.078333333,1.000000000,,,,,,,,,,,,,,,,,,
1732792750.050847,,,,,,,,,,,,,,,,,,,,,,,,,,,,,,,,,,,,,1.000000000,0.000000000,0.000000000,0.000000000,2.988333333,2.000000000,,,,,,
1732792750.062863,,,,,,,,,,,,,,,,,,,,,,,,,,,,,,,1.000000000,0.000000000,0.000000000,0.000000000,2.673823183,1.000000000,,,,,,,,,,,,
1732792750.062907,,,,,,,,,,,,,,,,,,,,,,,,,,,,,,,,,,,,,,,,,,,1.000000000,0.000000000,0.000000000,0.000000000,2.612132900,2.000000000
1732792750.062925,,,,,,,,,,,,,,,,,,,0.000000000,0.000000000,0.000000000,0.051444400,0.000000000,0.000000000,,,,,,,,,,,,,,,,,,,,,,,,
1732792750.062940,,,,,,,0.000000000,0.000000000,0.000000000,-2.460914135,0.000000000,0.000000000,,,,,,,,,,,,,,,,,,,,,,,,,,,,,,,,,,,,
1732792750.066870,62.469936371,6.239800453,0.000000000,-2.248212814,0.000000000,0.000000000,,,,,,,,,,,,,,,,,,,,,,,,,,,,,,,,,,,,,,,,,,
1732792750.068726,,,,,,,,,,,,,0.000000000,0.000000000,-0.048581764,0.378371775,0.104932763,0.000000000,,,,,,,,,,,,,,,,,,,,,,,,,,,,,,
1732792750.147386,,,,,,,,,,,,,,,,,,,,,,,,,1.000000000,0.000000000,0.000000000,0.000000000,3.078333333,1.000000000,,,,,,,,,,,,,,,,,,
1732792750.147518,,,,,,,,,,,,,,,,,,,,,,,,,,,,,,,,,,,,,1.000000000,0.000000000,0.000000000,0.000000000,2.988333333,2.000000000,,,,,,
1732792750.152834,,,,,,,0.000000000,0.000000000,0.000000000,-2.460914135,0.000000000,0.000000000,,,,,,,,,,,,,,,,,,,,,,,,,,,,,,,,,,,,
1732792750.153503,,,,,,,,,,,,,,,,,,,0.000000000,0.000000000,0.000000000,0.051444400,0.000000000,0.000000000,,,,,,,,,,,,,,,,,,,,,,,,
1732792750.166438,,,,,,,,,,,,,,,,,,,,,,,,,,,,,,,1.000000000,0.000000000,0.000000000,0.000000000,2.732487460,1.000000000,,,,,,,,,,,,
1732792750.166576,,,,,,,,,,,,,,,,,,,,,,,,,,,,,,,,,,,,,,,,,,,1.000000000,0.000000000,0.000000000,0.000000000,2.512645634,2.000000000
1732792750.169700,,,,,,,,,,,,,0.000000000,0.000000000,-0.048120867,0.376938552,0.103968300,0.000000000,,,,,,,,,,,,,,,,,,,,,,,,,,,,,,
1732792750.169738,62.469936371,6.239799976,0.075626962,-2.245462179,0.000000000,0.092264898,,,,,,,,,,,,,,,,,,,,,,,,,,,,,,,,,,,,,,,,,,
1732792750.247336,,,,,,,,,,,,,,,,,,,,,,,,,1.000000000,0.000000000,0.000000000,0.000000000,2.871666667,1.000000000,,,,,,,,,,,,,,,,,,
1732792750.247464,,,,,,,,,,,,,,,,,,,,,,,,,,,,,,,,,,,,,1.000000000,0.000000000,0.000000000,0.000000000,2.610000000,2.000000000,,,,,,
1732792750.251680,,,,,,,,,,,,,,,,,,,0.000000000,0.000000000,0.000000000,0.051444400,0.000000000,0.000000000,,,,,,,,,,,,,,,,,,,,,,,,
1732792750.251714,,,,,,,0.000000000,0.000000000,0.000000000,-2.460914135,0.000000000,0.000000000,,,,,,,,,,,,,,,,,,,,,,,,,,,,,,,,,,,,
1732792750.269737,,,,,,,,,,,,,0.000000000,0.000000000,-0.047956347,0.375489444,0.103174917,0.000000000,,,,,,,,,,,,,,,,,,,,,,,,,,,,,,
1732792750.269791,62.469936371,6.239799500,0.072405241,-2.243017197,0.000000000,0.088334389,,,,,,,,,,,,,,,,,,,,,,,,,,,,,,,,,,,,,,,,,,
1732792750.273005,,,,,,,,,,,,,,,,,,,,,,,,,,,,,,,1.000000000,0.000000000,0.000000000,0.000000000,2.653343908,1.000000000,,,,,,,,,,,,
1732792750.275659,,,,,,,,,,,,,,,,,,,,,,,,,,,,,,,,,,,,,,,,,,,1.000000000,0.000000000,0.000000000,0.000000000,2.568327569,2.000000000
1732792750.352249,,,,,,,,,,,,,,,,,,,,,,,,,,,,,,,,,,,,,1.000000000,0.000000000,0.000000000,0.000000000,2.610000000,2.000000000,,,,,,
1732792750.352303,,,,,,,,,,,,,,,,,,,,,,,,,1.000000000,0.000000000,0.000000000,0.000000000,2.871666667,1.000000000,,,,,,,,,,,,,,,,,,
1732792750.357850,,,,,,,0.000000000,0.000000000,0.000000000,-2.460914135,0.000000000,0.000000000,,,,,,,,,,,,,,,,,,,,,,,,,,,,,,,,,,,,
1732792750.358929,,,,,,,,,,,,,,,,,,,0.000000000,0.000000000,0.000000000,0.051444400,0.000000000,0.000000000,,,,,,,,,,,,,,,,,,,,,,,,
1732792750.366288,62.469936371,6.239799023,0.000000000,-2.247844219,0.000000000,0.000000000,,,,,,,,,,,,,,,,,,,,,,,,,,,,,,,,,,,,,,,,,,
1732792750.367969,,,,,,,,,,,,,0.000000000,0.000000000,-0.048268586,0.373953074,0.102472454,0.000000000,,,,,,,,,,,,,,,,,,,,,,,,,,,,,,
1732792750.373239,,,,,,,,,,,,,,,,,,,,,,,,,,,,,,,1.000000000,0.000000000,0.000000000,0.000000000,2.595745473,1.000000000,,,,,,,,,,,,
1732792750.373275,,,,,,,,,,,,,,,,,,,,,,,,,,,,,,,,,,,,,,,,,,,1.000000000,0.000000000,0.000000000,0.000000000,2.600722549,2.000000000
1732792750.456177,,,,,,,,,,,,,,,,,,,,,,,,,,,,,,,,,,,,,1.000000000,0.000000000,0.000000000,0.000000000,2.610000000,2.000000000,,,,,,
1732792750.456227,,,,,,,,,,,,,,,,,,,,,,,,,1.000000000,0.000000000,0.000000000,0.000000000,2.871666667,1.000000000,,,,,,,,,,,,,,,,,,
1732792750.465775,,,,,,,,,,,,,,,,,,,0.000000000,0.000000000,0.000000000,0.051444400,0.000000000,0.000000000,,,,,,,,,,,,,,,,,,,,,,,,
1732792750.465823,,,,,,,0.000000000,0.000000000,0.000000000,-2.460914135,0.000000000,0.000000000,,,,,,,,,,,,,,,,,,,,,,,,,,,,,,,,,,,,
1732792750.470711,62.469936371,6.239798546,0.074490137,-2.245186329,0.000000000,0.090877973,,,,,,,,,,,,,,,,,,,,,,,,,,,,,,,,,,,,,,,,,,
1732792750.473690,,,,,,,,,,,,,0.000000000,0.000000000,-0.047913466,0.372413963,0.102389030,0.000000000,,,,,,,,,,,,,,,,,,,,,,,,,,,,,,
1732792750.474558,,,,,,,,,,,,,,,,,,,,,,,,,,,,,,,1.000000000,0.000000000,0.000000000,0.000000000,2.672852385,1.000000000,,,,,,,,,,,,
1732792750.474666,,,,,,,,,,,,,,,,,,,,,,,,,,,,,,,,,,,,,,,,,,,1.000000000,0.000000000,0.000000000,0.000000000,2.501411827,2.000000000
1732792750.550122,,,,,,,0.000000000,0.000000000,0.000000000,-2.460914135,0.000000000,0.000000000,,,,,,,,,,,,,,,,,,,,,,,,,,,,,,,,,,,,
1732792750.550836,,,,,,,,,,,,,,,,,,,0.000000000,0.000000000,0.000000000,0.051444400,0.000000000,0.000000000,,,,,,,,,,,,,,,,,,,,,,,,
1732792750.557663,,,,,,,,,,,,,,,,,,,,,,,,,,,,,,,,,,,,,1.000000000,0.000000000,0.000000000,0.000000000,2.610000000,2.000000000,,,,,,
1732792750.557712,,,,,,,,,,,,,,,,,,,,,,,,,,,,,,,1.000000000,0.000000000,0.000000000,0.000000000,2.604342578,1.000000000,,,,,,,,,,,,
1732792750.557743,,,,,,,,,,,,,,,,,,,,,,,,,1.000000000,0.000000000,0.000000000,0.000000000,2.871666667,1.000000000,,,,,,,,,,,,,,,,,,
1732792750.557771,,,,,,,,,,,,,,,,,,,,,,,,,,,,,,,,,,,,,,,,,,,1.000000000,0.000000000,0.000000000,0.000000000,2.553738560,2.000000000
1732792750.572098,62.469936371,6.239798069,0.072443299,-2.242723465,0.000000000,0.088380828,,,,,,,,,,,,,,,,,,,,,,,,,,,,,,,,,,,,,,,,,,
1732792750.572681,,,,,,,,,,,,,0.000000000,0.000000000,-0.047814414,0.370684057,0.101725422,0.000000000,,,,,,,,,,,,,,,,,,,,,,,,,,,,,,
1732792750.654633,,,,,,,,,,,,,,,,,,,0.000000000,0.000000000,0.000000000,0.051444400,0.000000000,0.000000000,,,,,,,,,,,,,,,,,,,,,,,,
1732792750.654679,,,,,,,0.000000000,0.000000000,0.000000000,-2.460914135,0.000000000,0.000000000,,,,,,,,,,,,,,,,,,,,,,,,,,,,,,,,,,,,
1732792750.657147,,,,,,,,,,,,,,,,,,,,,,,,,,,,,,,1.000000000,0.000000000,0.000000000,0.000000000,2.560250657,1.000000000,,,,,,,,,,,,
1732792750.657386,,,,,,,,,,,,,,,,,,,,,,,,,,,,,,,,,,,,,,,,,,,1.000000000,0.000000000,0.000000000,0.000000000,2.592923348,2.000000000
1732792750.668454,,,,,,,,,,,,,0.000000000,0.000000000,-0.047887102,0.368955553,0.101141199,0.000000000,,,,,,,,,,,,,,,,,,,,,,,,,,,,,,
1732792750.668503,62.469936371,6.239797592,0.070452005,-2.240467072,0.000000000,0.085951447,,,,,,,,,,,,,,,,,,,,,,,,,,,,,,,,,,,,,,,,,,
1732792750.754073,,,,,,,0.000000000,0.000000000,0.000000000,-2.460914135,0.000000000,0.000000000,,,,,,,,,,,,,,,,,,,,,,,,,,,,,,,,,,,,
1732792750.754134,,,,,,,,,,,,,,,,,,,0.000000000,0.000000000,0.000000000,0.051444400,0.000000000,0.000000000,,,,,,,,,,,,,,,,,,,,,,,,
1732792750.759717,,,,,,,,,,,,,,,,,,,,,,,,,,,,,,,1.000000000,0.000000000,0.000000000,0.000000000,2.529720576,1.000000000,,,,,,,,,,,,
1732792750.763644,,,,,,,,,,,,,,,,,,,,,,,,,,,,,,,,,,,,,,,,,,,1.000000000,0.000000000,0.000000000,0.000000000,2.618046693,2.000000000
1732792750.769286,,,,,,,,,,,,,0.000000000,0.000000000,-0.048350215,0.367541760,0.101060174,0.000000000,,,,,,,,,,,,,,,,,,,,,,,,,,,,,,
1732792750.769331,62.469936371,6.239797115,0.000000000,-2.245302200,0.000000000,0.000000000,,,,,,,,,,,,,,,,,,,,,,,,,,,,,,,,,,,,,,,,,,
1732792750.852901,,,,,,,,,,,,,,,,,,,0.000000000,0.000000000,0.000000000,0.051444400,0.000000000,0.000000000,,,,,,,,,,,,,,,,,,,,,,,,
1732792750.852939,,,,,,,0.000000000,0.000000000,0.000000000,-2.460914135,0.000000000,0.000000000,,,,,,,,,,,,,,,,,,,,,,,,,,,,,,,,,,,,
1732792750.857093,,,,,,,,,,,,,,,,,,,,,,,,,,,,,,,1.000000000,0.000000000,0.000000000,0.000000000,2.615116908,1.000000000,,,,,,,,,,,,
1732792750.857365,,,,,,,,,,,,,,,,,,,,,,,,,,,,,,,,,,,,,,,,,,,1.000000000,0.000000000,0.000000000,0.000000000,2.506232580,2.000000000
1732792750.871321,,,,,,,,,,,,,0.000000000,0.000000000,-0.048406631,0.366120875,0.100977778,0.000000000,,,,,,,,,,,,,,,,,,,,,,,,,,,,,,
1732792750.871374,62.469936371,6.239796162,0.000000000,-2.250142813,0.000000000,0.000000000,,,,,,,,,,,,,,,,,,,,,,,,,,,,,,,,,,,,,,,,,,
1732792750.952117,,,,,,,,,,,,,,,,,,,0.000000000,0.000000000,0.000000000,0.051444400,0.000000000,0.000000000,,,,,,,,,,,,,,,,,,,,,,,,
1732792750.952163,,,,,,,0.000000000,0.000000000,0.000000000,-2.460914135,0.000000000,0.000000000,,,,,,,,,,,,,,,,,,,,,,,,,,,,,,,,,,,,
1732792750.954981,,,,,,,,,,,,,,,,,,,,,,,,,,,,,,,1.000000000,0.000000000,0.000000000,0.000000000,2.673589925,1.000000000,,,,,,,,,,,,
1732792750.955201,,,,,,,,,,,,,,,,,,,,,,,,,,,,,,,,,,,,,,,,,,,1.000000000,0.000000000,0.000000000,0.000000000,2.417285052,2.000000000
1732792750.964310,,,,,,,,,,,,,0.000000000,0.000000000,-0.048171867,0.364695102,0.100893989,0.000000000,,,,,,,,,,,,,,,,,,,,,,,,,,,,,,
1732792750.964351,62.469936371,6.239795685,0.000000000,-2.254959822,0.000000000,0.000000000,,,,,,,,,,,,,,,,,,,,,,,,,,,,,,,,,,,,,,,,,,
1732792751.037617,,,,,,,,,,,,,,,,,,,,,,,,,,,,,,,,,,,,,1.000000000,0.000000000,0.000000000,0.000000000,2.610000000,2.000000000,,,,,,
1732792751.037665,,,,,,,,,,,,,,,,,,,,,,,,,1.000000000,0.000000000,0.000000000,0.000000000,2.871666667,1.000000000,,,,,,,,,,,,,,,,,,
1732792751.052357,,,,,,,,,,,,,,,,,,,0.000000000,0.000000000,0.000000000,0.051444400,0.000000000,0.000000000,,,,,,,,,,,,,,,,,,,,,,,,
1732792751.052408,,,,,,,0.000000000,0.000000000,0.000000000,-2.460914135,0.000000000,0.000000000,,,,,,,,,,,,,,,,,,,,,,,,,,,,,,,,,,,,
1732792751.067855,62.469936371,6.239795208,0.083316378,-2.251367331,0.000000000,0.101645984,,,,,,,,,,,,,,,,,,,,,,,,,,,,,,,,,,,,,,,,,,
1732792751.072698,,,,,,,,,,,,,0.000000000,0.000000000,-0.047390260,0.362830520,0.100500852,0.000000000,,,,,,,,,,,,,,,,,,,,,,,,,,,,,,
1732792751.073815,,,,,,,,,,,,,,,,,,,,,,,,,,,,,,,1.000000000,0.000000000,0.000000000,0.000000000,2.713393936,1.000000000,,,,,,,,,,,,
1732792751.073865,,,,,,,,,,,,,,,,,,,,,,,,,,,,,,,,,,,,,,,,,,,1.000000000,0.000000000,0.000000000,0.000000000,2.346116845,2.000000000
1732792751.082402,,,,,,,,,,,,,,,,,,,,,,,,,1.000000000,0.000000000,0.000000000,0.000000000,2.871666667,1.000000000,,,,,,,,,,,,,,,,,,
1732792751.085766,,,,,,,,,,,,,,,,,,,,,,,,,,,,,,,,,,,,,1.000000000,0.000000000,0.000000000,0.000000000,2.610000000,2.000000000,,,,,,
1732792751.148459,,,,,,,0.000000000,0.000000000,0.000000000,-2.460914135,0.000000000,0.000000000,,,,,,,,,,,,,,,,,,,,,,,,,,,,,,,,,,,,
1732792751.148786,,,,,,,,,,,,,,,,,,,0.000000000,0.000000000,0.000000000,0.051444400,0.000000000,0.000000000,,,,,,,,,,,,,,,,,,,,,,,,
1732792751.156710,,,,,,,,,,,,,,,,,,,,,,,,,1.000000000,0.000000000,0.000000000,0.000000000,2.871666667,1.000000000,,,,,,,,,,,,,,,,,,
1732792751.160754,,,,,,,,,,,,,,,,,,,,,,,,,,,,,,,,,,,,,1.000000000,0.000000000,0.000000000,0.000000000,2.610000000,2.000000000,,,,,,
1732792751.172675,,,,,,,,,,,,,,,,,,,,,,,,,,,,,,,1.000000000,0.000000000,0.000000000,0.000000000,2.618307034,1.000000000,,,,,,,,,,,,
1732792751.172714,62.469936371,6.239794731,0.081137590,-2.247957468,0.000000000,0.098987855,,,,,,,,,,,,,,,,,,,,,,,,,,,,,,,,,,,,,,,,,,
1732792751.177898,,,,,,,,,,,,,,,,,,,,,,,,,,,,,,,,,,,,,,,,,,,1.000000000,0.000000000,0.000000000,0.000000000,2.457769373,2.000000000
1732792751.177950,,,,,,,,,,,,,0.000000000,0.000000000,-0.047039460,0.361019373,0.100164853,0.000000000,,,,,,,,,,,,,,,,,,,,,,,,,,,,,,
1732792751.251135,,,,,,,,,,,,,,,,,,,,,,,,,,,,,,,,,,,,,1.000000000,0.000000000,0.000000000,0.000000000,2.610000000,2.000000000,,,,,,
1732792751.251179,,,,,,,,,,,,,,,,,,,,,,,,,1.000000000,0.000000000,0.000000000,0.000000000,2.871666667,1.000000000,,,,,,,,,,,,,,,,,,
1732792751.257259,,,,,,,0.000000000,0.000000000,0.000000000,-2.460914135,0.000000000,0.000000000,,,,,,,,,,,,,,,,,,,,,,,,,,,,,,,,,,,,
1732792751.257390,,,,,,,,,,,,,,,,,,,0.000000000,0.000000000,0.000000000,0.051444400,0.000000000,0.000000000,,,,,,,,,,,,,,,,,,,,,,,,
1732792751.263245,62.469936371,6.239794254,0.081497654,-2.244505405,0.000000000,0.099427134,,,,,,,,,,,,,,,,,,,,,,,,,,,,,,,,,,,,,,,,,,
1732792751.269175,,,,,,,,,,,,,0.000000000,0.000000000,-0.046975788,0.360487580,0.098634094,0.000000000,,,,,,,,,,,,,,,,,,,,,,,,,,,,,,
1732792751.273747,,,,,,,,,,,,,,,,,,,,,,,,,,,,,,,1.000000000,0.000000000,0.000000000,0.000000000,2.548525460,1.000000000,,,,,,,,,,,,
1732792751.273867,,,,,,,,,,,,,,,,,,,,,,,,,,,,,,,,,,,,,,,,,,,1.000000000,0.000000000,0.000000000,0.000000000,2.532572046,2.000000000
1732792751.351786,,,,,,,,,,,,,,,,,,,,,,,,,1.000000000,0.000000000,0.000000000,0.000000000,2.871666667,1.000000000,,,,,,,,,,,,,,,,,,
1732792751.352041,,,,,,,,,,,,,,,,,,,,,,,,,,,,,,,,,,,,,1.000000000,0.000000000,0.000000000,0.000000000,2.610000000,2.000000000,,,,,,
1732792751.354716,,,,,,,0.000000000,0.000000000,0.000000000,-2.460914135,0.000000000,0.000000000,,,,,,,,,,,,,,,,,,,,,,,,,,,,,,,,,,,,
1732792751.357468,,,,,,,,,,,,,,,,,,,0.000000000,0.000000000,0.000000000,0.051444400,0.000000000,0.000000000,,,,,,,,,,,,,,,,,,,,,,,,
1732792751.366668,,,,,,,,,,,,,0.000000000,0.000000000,-0.047453698,0.359650105,0.097261533,0.000000000,,,,,,,,,,,,,,,,,,,,,,,,,,,,,,
1732792751.366722,62.469936371,6.239793777,0.000000000,-2.249250650,0.000000000,0.000000000,,,,,,,,,,,,,,,,,,,,,,,,,,,,,,,,,,,,,,,,,,
1732792751.372180,,,,,,,,,,,,,,,,,,,,,,,,,,,,,,,1.000000000,0.000000000,0.000000000,0.000000000,2.451338353,1.000000000,,,,,,,,,,,,
1732792751.373938,,,,,,,,,,,,,,,,,,,,,,,,,,,,,,,,,,,,,,,,,,,1.000000000,0.000000000,0.000000000,0.000000000,2.545499583,2.000000000
1732792751.449746,,,,,,,,,,,,,,,,,,,,,,,,,,,,,,,,,,,,,1.000000000,0.000000000,0.000000000,0.000000000,2.540000000,2.000000000,,,,,,
1732792751.449788,,,,,,,,,,,,,,,,,,,,,,,,,1.000000000,0.000000000,0.000000000,0.000000000,2.618333333,1.000000000,,,,,,,,,,,,,,,,,,
1732792751.453845,,,,,,,,,,,,,,,,,,,0.000000000,0.000000000,0.000000000,0.051444400,0.000000000,0.000000000,,,,,,,,,,,,,,,,,,,,,,,,
1732792751.453897,,,,,,,0.000000000,0.000000000,0.000000000,-2.460914135,0.000000000,0.000000000,,,,,,,,,,,,,,,,,,,,,,,,,,,,,,,,,,,,
1732792751.458179,,,,,,,,,,,,,,,,,,,,,,,,,,,,,,,1.000000000,0.000000000,0.000000000,0.000000000,2.521106475,1.000000000,,,,,,,,,,,,
1732792751.458284,,,,,,,,,,,,,,,,,,,,,,,,,,,,,,,,,,,,,,,,,,,1.000000000,0.000000000,0.000000000,0.000000000,2.412034711,2.000000000
1732792751.467795,,,,,,,,,,,,,0.000000000,0.000000000,-0.047181126,0.358585745,0.096030124,0.000000000,,,,,,,,,,,,,,,,,,,,,,,,,,,,,,
1732792751.467835,62.469936371,6.239793301,0.084571347,-2.245511770,0.000000000,0.103177041,,,,,,,,,,,,,,,,,,,,,,,,,,,,,,,,,,,,,,,,,,
1732792751.547474,,,,,,,,,,,,,,,,,,,,,,,,,,,,,,,,,,,,,1.000000000,0.000000000,0.000000000,0.000000000,2.540000000,2.000000000,,,,,,
1732792751.547521,,,,,,,,,,,,,,,,,,,,,,,,,1.000000000,0.000000000,0.000000000,0.000000000,2.618333333,1.000000000,,,,,,,,,,,,,,,,,,
1732792751.551842,,,,,,,,,,,,,,,,,,,0.000000000,0.000000000,0.000000000,0.051444400,0.000000000,0.000000000,,,,,,,,,,,,,,,,,,,,,,,,
1732792751.553069,,,,,,,0.000000000,0.000000000,0.000000000,-2.460914135,0.000000000,0.000000000,,,,,,,,,,,,,,,,,,,,,,,,,,,,,,,,,,,,
1732792751.558264,,,,,,,,,,,,,,,,,,,,,,,,,,,,,,,1.000000000,0.000000000,0.000000000,0.000000000,2.423379060,1.000000000,,,,,,,,,,,,
1732792751.558571,,,,,,,,,,,,,,,,,,,,,,,,,,,,,,,,,,,,,,,,,,,1.000000000,0.000000000,0.000000000,0.000000000,2.462767912,2.000000000
1732792751.563693,62.469932556,6.239792824,0.081530415,-2.242079258,0.000000000,0.099467099,,,,,,,,,,,,,,,,,,,,,,,,,,,,,,,,,,,,,,,,,,
1732792751.569646,,,,,,,,,,,,,0.000000000,0.000000000,-0.047205593,0.357343346,0.094929196,0.000000000,,,,,,,,,,,,,,,,,,,,,,,,,,,,,,
1732792751.647715,,,,,,,,,,,,,,,,,,,,,,,,,,,,,,,,,,,,,1.000000000,0.000000000,0.000000000,0.000000000,2.540000000,2.000000000,,,,,,
1732792751.647756,,,,,,,,,,,,,,,,,,,,,,,,,1.000000000,0.000000000,0.000000000,0.000000000,2.618333333,1.000000000,,,,,,,,,,,,,,,,,,
1732792751.656324,,,,,,,,,,,,,,,,,,,0.000000000,0.000000000,0.000000000,0.051444400,0.000000000,0.000000000,,,,,,,,,,,,,,,,,,,,,,,,
1732792751.656370,,,,,,,0.000000000,0.000000000,0.000000000,-2.460914135,0.000000000,0.000000000,,,,,,,,,,,,,,,,,,,,,,,,,,,,,,,,,,,,
1732792751.670669,,,,,,,,,,,,,0.000000000,0.000000000,-0.047422782,0.355969071,0.093946539,0.000000000,,,,,,,,,,,,,,,,,,,,,,,,,,,,,,
1732792751.670739,62.469932556,6.239792347,0.079074971,-2.238914013,0.000000000,0.096471466,,,,,,,,,,,,,,,,,,,,,,,,,,,,,,,,,,,,,,,,,,
1732792751.671254,,,,,,,,,,,,,,,,,,,,,,,,,,,,,,,1.000000000,0.000000000,0.000000000,0.000000000,2.353850641,1.000000000,,,,,,,,,,,,
1732792751.672262,,,,,,,,,,,,,,,,,,,,,,,,,,,,,,,,,,,,,,,,,,,1.000000000,0.000000000,0.000000000,0.000000000,2.494711570,2.000000000
1732792751.747787,,,,,,,,,,,,,,,,,,,,,,,,,1.000000000,0.000000000,0.000000000,0.000000000,2.618333333,1.000000000,,,,,,,,,,,,,,,,,,
1732792751.747872,,,,,,,,,,,,,,,,,,,,,,,,,,,,,,,,,,,,,1.000000000,0.000000000,0.000000000,0.000000000,2.540000000,2.000000000,,,,,,
1732792751.756638,,,,,,,,,,,,,,,,,,,,,,,,,,,,,,,1.000000000,0.000000000,0.000000000,0.000000000,2.305324582,1.000000000,,,,,,,,,,,,
1732792751.756693,,,,,,,,,,,,,,,,,,,,,,,,,,,,,,,,,,,,,,,,,,,1.000000000,0.000000000,0.000000000,0.000000000,2.514391269,2.000000000
1732792751.756715,,,,,,,,,,,,,,,,,,,0.000000000,0.000000000,0.000000000,0.051444400,0.000000000,0.000000000,,,,,,,,,,,,,,,,,,,,,,,,
1732792751.756736,,,,,,,0.000000000,0.000000000,0.000000000,-2.460914135,0.000000000,0.000000000,,,,,,,,,,,,,,,,,,,,,,,,,,,,,,,,,,,,
1732792751.774168,62.469932556,6.239791870,0.000000000,-2.243721485,0.000000000,0.000000000,,,,,,,,,,,,,,,,,,,,,,,,,,,,,,,,,,,,,,,,,,
1732792751.778751,,,,,,,,,,,,,0.000000000,0.000000000,-0.048075277,0.354577065,0.093134522,0.000000000,,,,,,,,,,,,,,,,,,,,,,,,,,,,,,
1732792751.848209,,,,,,,,,,,,,,,,,,,,,,,,,1.000000000,0.000000000,0.000000000,0.000000000,2.618333333,1.000000000,,,,,,,,,,,,,,,,,,
1732792751.848479,,,,,,,,,,,,,,,,,,,,,,,,,,,,,,,,,,,,,1.000000000,0.000000000,0.000000000,0.000000000,2.540000000,2.000000000,,,,,,
1732792751.856639,,,,,,,,,,,,,,,,,,,,,,,,,,,,,,,1.000000000,0.000000000,0.000000000,0.000000000,2.412558413,1.000000000,,,,,,,,,,,,
1732792751.856694,,,,,,,,,,,,,,,,,,,,,,,,,,,,,,,,,,,,,,,,,,,1.000000000,0.000000000,0.000000000,0.000000000,2.386808893,2.000000000
1732792751.856719,,,,,,,,,,,,,,,,,,,0.000000000,0.000000000,0.000000000,0.051444400,0.000000000,0.000000000,,,,,,,,,,,,,,,,,,,,,,,,
1732792751.856750,,,,,,,0.000000000,0.000000000,0.000000000,-2.460914135,0.000000000,0.000000000,,,,,,,,,,,,,,,,,,,,,,,,,,,,,,,,,,,,
1732792751.865650,62.469932556,6.239790916,0.082846835,-2.240229845,0.000000000,0.101073138,,,,,,,,,,,,,,,,,,,,,,,,,,,,,,,,,,,,,,,,,,
1732792751.876667,,,,,,,,,,,,,0.000000000,0.000000000,-0.047931198,0.353098124,0.092409812,0.000000000,,,,,,,,,,,,,,,,,,,,,,,,,,,,,,
1732792751.947699,,,,,,,,,,,,,,,,,,,,,,,,,,,,,,,,,,,,,1.000000000,0.000000000,0.000000000,0.000000000,2.540000000,2.000000000,,,,,,
1732792751.947744,,,,,,,,,,,,,,,,,,,,,,,,,1.000000000,0.000000000,0.000000000,0.000000000,2.618333333,1.000000000,,,,,,,,,,,,,,,,,,
1732792751.950151,,,,,,,0.000000000,0.000000000,0.000000000,-2.460914135,0.000000000,0.000000000,,,,,,,,,,,,,,,,,,,,,,,,,,,,,,,,,,,,
1732792751.950474,,,,,,,,,,,,,,,,,,,0.000000000,0.000000000,0.000000000,0.051444400,0.000000000,0.000000000,,,,,,,,,,,,,,,,,,,,,,,,
1732792751.958611,,,,,,,,,,,,,,,,,,,,,,,,,,,,,,,1.000000000,0.000000000,0.000000000,0.000000000,2.339129179,1.000000000,,,,,,,,,,,,
1732792751.959081,,,,,,,,,,,,,,,,,,,,,,,,,,,,,,,,,,,,,,,,,,,1.000000000,0.000000000,0.000000000,0.000000000,2.440722221,2.000000000
1732792751.966168,62.469932556,6.239790440,0.000000000,-2.245065928,0.000000000,0.000000000,,,,,,,,,,,,,,,,,,,,,,,,,,,,,,,,,,,,,,,,,,
1732792751.968953,,,,,,,,,,,,,0.000000000,0.000000000,-0.048358977,0.351633072,0.091832854,0.000000000,,,,,,,,,,,,,,,,,,,,,,,,,,,,,,
1732792752.053887,,,,,,,,,,,,,,,,,,,,,,,,,,,,,,,,,,,,,1.000000000,0.000000000,0.000000000,0.000000000,2.540000000,2.000000000,,,,,,
1732792752.053922,,,,,,,,,,,,,,,,,,,,,,,,,1.000000000,0.000000000,0.000000000,0.000000000,2.618333333,1.000000000,,,,,,,,,,,,,,,,,,
1732792752.054646,,,,,,,0.000000000,0.000000000,0.000000000,-2.460914135,0.000000000,0.000000000,,,,,,,,,,,,,,,,,,,,,,,,,,,,,,,,,,,,
1732792752.056363,,,,,,,,,,,,,,,,,,,0.000000000,0.000000000,0.000000000,0.051444400,0.000000000,0.000000000,,,,,,,,,,,,,,,,,,,,,,,,
1732792752.068775,,,,,,,,,,,,,,,,,,,,,,,,,,,,,,,1.000000000,0.000000000,0.000000000,0.000000000,2.433126069,1.000000000,,,,,,,,,,,,
1732792752.069205,,,,,,,,,,,,,,,,,,,,,,,,,,,,,,,,,,,,,,,,,,,1.000000000,0.000000000,0.000000000,0.000000000,2.327551439,2.000000000
1732792752.074477,62.469932556,6.239789963,0.084400497,-2.241430521,0.000000000,0.102968611,,,,,,,,,,,,,,,,,,,,,,,,,,,,,,,,,,,,,,,,,,
1732792752.076404,,,,,,,,,,,,,0.000000000,0.000000000,-0.048046157,0.350104213,0.091321640,0.000000000,,,,,,,,,,,,,,,,,,,,,,,,,,,,,,
1732792752.148694,,,,,,,,,,,,,,,,,,,,,,,,,,,,,,,,,,,,,1.000000000,0.000000000,0.000000000,0.000000000,2.540000000,2.000000000,,,,,,
1732792752.148734,,,,,,,,,,,,,,,,,,,,,,,,,1.000000000,0.000000000,0.000000000,0.000000000,2.618333333,1.000000000,,,,,,,,,,,,,,,,,,
1732792752.156022,,,,,,,,,,,,,,,,,,,0.000000000,0.000000000,0.000000000,0.051444400,0.000000000,0.000000000,,,,,,,,,,,,,,,,,,,,,,,,
1732792752.156062,,,,,,,0.000000000,0.000000000,0.000000000,-2.460914135,0.000000000,0.000000000,,,,,,,,,,,,,,,,,,,,,,,,,,,,,,,,,,,,
1732792752.163505,,,,,,,,,,,,,,,,,,,,,,,,,,,,,,,1.000000000,0.000000000,0.000000000,0.000000000,2.348518853,1.000000000,,,,,,,,,,,,
1732792752.163728,,,,,,,,,,,,,,,,,,,,,,,,,,,,,,,,,,,,,,,,,,,1.000000000,0.000000000,0.000000000,0.000000000,2.398690573,2.000000000
1732792752.170118,62.469932556,6.239789486,0.000000000,-2.246267080,0.000000000,0.000000000,,,,,,,,,,,,,,,,,,,,,,,,,,,,,,,,,,,,,,,,,,
1732792752.178143,,,,,,,,,,,,,0.000000000,0.000000000,-0.048367742,0.348532766,0.091194339,0.000000000,,,,,,,,,,,,,,,,,,,,,,,,,,,,,,
1732792752.252723,,,,,,,0.000000000,0.000000000,0.000000000,-2.460914135,0.000000000,0.000000000,,,,,,,,,,,,,,,,,,,,,,,,,,,,,,,,,,,,
1732792752.254738,,,,,,,,,,,,,,,,,,,0.000000000,0.000000000,0.000000000,0.051444400,0.000000000,0.000000000,,,,,,,,,,,,,,,,,,,,,,,,
1732792752.255033,,,,,,,,,,,,,,,,,,,,,,,,,,,,,,,1.000000000,0.000000000,0.000000000,0.000000000,2.438957945,1.000000000,,,,,,,,,,,,
1732792752.255067,,,,,,,,,,,,,,,,,,,,,,,,,,,,,,,,,,,,,,,,,,,1.000000000,0.000000000,0.000000000,0.000000000,2.295221204,2.000000000
1732792752.259228,,,,,,,,,,,,,,,,,,,,,,,,,1.000000000,0.000000000,0.000000000,0.000000000,2.450000000,1.000000000,,,,,,,,,,,,,,,,,,
1732792752.263638,,,,,,,,,,,,,,,,,,,,,,,,,,,,,,,,,,,,,1.000000000,0.000000000,0.000000000,0.000000000,2.485000000,2.000000000,,,,,,
1732792752.266710,62.469932556,6.239789009,0.085759193,-2.242488623,0.000000000,0.104626216,,,,,,,,,,,,,,,,,,,,,,,,,,,,,,,,,,,,,,,,,,
1732792752.267657,,,,,,,,,,,,,0.000000000,0.000000000,-0.047973458,0.346852243,0.090709761,0.000000000,,,,,,,,,,,,,,,,,,,,,,,,,,,,,,
1732792752.350266,,,,,,,,,,,,,,,,,,,,,,,,,1.000000000,0.000000000,0.000000000,0.000000000,2.450000000,1.000000000,,,,,,,,,,,,,,,,,,
1732792752.350544,,,,,,,,,,,,,,,,,,,,,,,,,,,,,,,,,,,,,1.000000000,0.000000000,0.000000000,0.000000000,2.485000000,2.000000000,,,,,,
1732792752.356886,,,,,,,,,,,,,,,,,,,0.000000000,0.000000000,0.000000000,0.051444400,0.000000000,0.000000000,,,,,,,,,,,,,,,,,,,,,,,,
1732792752.356930,,,,,,,0.000000000,0.000000000,0.000000000,-2.460914135,0.000000000,0.000000000,,,,,,,,,,,,,,,,,,,,,,,,,,,,,,,,,,,,
1732792752.363052,,,,,,,,,,,,,,,,,,,,,,,,,,,,,,,1.000000000,0.000000000,0.000000000,0.000000000,2.352208065,1.000000000,,,,,,,,,,,,
1732792752.363127,,,,,,,,,,,,,,,,,,,,,,,,,,,,,,,,,,,,,,,,,,,1.000000000,0.000000000,0.000000000,0.000000000,2.380654906,2.000000000
1732792752.372858,62.469932556,6.239788532,0.081893362,-2.239090919,0.000000000,0.099909902,,,,,,,,,,,,,,,,,,,,,,,,,,,,,,,,,,,,,,,,,,
1732792752.374636,,,,,,,,,,,,,0.000000000,0.000000000,-0.047916241,0.345331222,0.090416640,0.000000000,,,,,,,,,,,,,,,,,,,,,,,,,,,,,,
1732792752.450719,,,,,,,,,,,,,,,,,,,,,,,,,1.000000000,0.000000000,0.000000000,0.000000000,2.450000000,1.000000000,,,,,,,,,,,,,,,,,,
1732792752.450854,,,,,,,,,,,,,,,,,,,,,,,,,,,,,,,,,,,,,1.000000000,0.000000000,0.000000000,0.000000000,2.485000000,2.000000000,,,,,,
1732792752.453751,,,,,,,0.000000000,0.000000000,0.000000000,-2.460914135,0.000000000,0.000000000,,,,,,,,,,,,,,,,,,,,,,,,,,,,,,,,,,,,
1732792752.458531,,,,,,,,,,,,,,,,,,,0.000000000,0.000000000,0.000000000,0.051444400,0.000000000,0.000000000,,,,,,,,,,,,,,,,,,,,,,,,
1732792752.469155,62.469932556,6.239787579,0.078076512,-2.236091137,0.000000000,0.095253341,,,,,,,,,,,,,,,,,,,,,,,,,,,,,,,,,,,,,,,,,,
1732792752.476633,,,,,,,,,,,,,0.000000000,0.000000000,-0.048078250,0.343872100,0.090294257,0.000000000,,,,,,,,,,,,,,,,,,,,,,,,,,,,,,
1732792752.485689,,,,,,,,,,,,,,,,,,,,,,,,,,,,,,,1.000000000,0.000000000,0.000000000,0.000000000,2.287251836,1.000000000,,,,,,,,,,,,
1732792752.485738,,,,,,,,,,,,,,,,,,,,,,,,,,,,,,,,,,,,,,,,,,,1.000000000,0.000000000,0.000000000,0.000000000,2.429864234,2.000000000
1732792752.551774,,,,,,,,,,,,,,,,,,,,,,,,,1.000000000,0.000000000,0.000000000,0.000000000,2.450000000,1.000000000,,,,,,,,,,,,,,,,,,
1732792752.555639,,,,,,,,,,,,,,,,,,,,,,,,,,,,,,,,,,,,,1.000000000,0.000000000,0.000000000,0.000000000,2.485000000,2.000000000,,,,,,
1732792752.555687,,,,,,,0.000000000,0.000000000,0.000000000,-2.460914135,0.000000000,0.000000000,,,,,,,,,,,,,,,,,,,,,,,,,,,,,,,,,,,,
1732792752.556836,,,,,,,,,,,,,,,,,,,0.000000000,0.000000000,0.000000000,0.051444400,0.000000000,0.000000000,,,,,,,,,,,,,,,,,,,,,,,,
1732792752.564038,,,,,,,,,,,,,,,,,,,,,,,,,,,,,,,1.000000000,0.000000000,0.000000000,0.000000000,2.241112546,1.000000000,,,,,,,,,,,,
1732792752.564159,,,,,,,,,,,,,,,,,,,,,,,,,,,,,,,,,,,,,,,,,,,1.000000000,0.000000000,0.000000000,0.000000000,2.455836514,2.000000000
1732792752.570671,62.469932556,6.239787102,0.075774774,-2.233350515,0.000000000,0.092445225,,,,,,,,,,,,,,,,,,,,,,,,,,,,,,,,,,,,,,,,,,
1732792752.573931,,,,,,,,,,,,,0.000000000,0.000000000,-0.048368376,0.342352927,0.090142146,0.000000000,,,,,,,,,,,,,,,,,,,,,,,,,,,,,,
1732792752.648874,,,,,,,,,,,,,,,,,,,,,,,,,,,,,,,,,,,,,1.000000000,0.000000000,0.000000000,0.000000000,2.485000000,2.000000000,,,,,,
1732792752.648916,,,,,,,,,,,,,,,,,,,,,,,,,1.000000000,0.000000000,0.000000000,0.000000000,2.450000000,1.000000000,,,,,,,,,,,,,,,,,,
1732792752.657478,,,,,,,,,,,,,,,,,,,0.000000000,0.000000000,0.000000000,0.051444400,0.000000000,0.000000000,,,,,,,,,,,,,,,,,,,,,,,,
1732792752.657522,,,,,,,0.000000000,0.000000000,0.000000000,-2.460914135,0.000000000,0.000000000,,,,,,,,,,,,,,,,,,,,,,,,,,,,,,,,,,,,
1732792752.660349,,,,,,,,,,,,,,,,,,,,,,,,,,,,,,,1.000000000,0.000000000,0.000000000,0.000000000,2.210208310,1.000000000,,,,,,,,,,,,
1732792752.660391,,,,,,,,,,,,,,,,,,,,,,,,,,,,,,,,,,,,,,,,,,,1.000000000,0.000000000,0.000000000,0.000000000,2.471283381,2.000000000
1732792752.671839,62.469932556,6.239786625,0.073662601,-2.230857611,0.000000000,0.089868374,,,,,,,,,,,,,,,,,,,,,,,,,,,,,,,,,,,,,,,,,,
1732792752.677714,,,,,,,,,,,,,0.000000000,0.000000000,-0.048734639,0.340886652,0.090086699,0.000000000,,,,,,,,,,,,,,,,,,,,,,,,,,,,,,
1732792752.752635,,,,,,,,,,,,,,,,,,,,,,,,,,,,,,,,,,,,,1.000000000,0.000000000,0.000000000,0.000000000,2.485000000,2.000000000,,,,,,
1732792752.752680,,,,,,,,,,,,,,,,,,,,,,,,,1.000000000,0.000000000,0.000000000,0.000000000,2.450000000,1.000000000,,,,,,,,,,,,,,,,,,
1732792752.752697,,,,,,,,,,,,,,,,,,,0.000000000,0.000000000,0.000000000,0.051444400,0.000000000,0.000000000,,,,,,,,,,,,,,,,,,,,,,,,
1732792752.752713,,,,,,,0.000000000,0.000000000,0.000000000,-2.460914135,0.000000000,0.000000000,,,,,,,,,,,,,,,,,,,,,,,,,,,,,,,,,,,,
1732792752.761988,,,,,,,,,,,,,,,,,,,,,,,,,,,,,,,1.000000000,0.000000000,0.000000000,0.000000000,2.187111383,1.000000000,,,,,,,,,,,,
1732792752.765723,,,,,,,,,,,,,,,,,,,,,,,,,,,,,,,,,,,,,,,,,,,1.000000000,0.000000000,0.000000000,0.000000000,2.476483665,2.000000000
1732792752.766729,,,,,,,,,,,,,0.000000000,0.000000000,-0.049135987,0.339489967,0.089978918,0.000000000,,,,,,,,,,,,,,,,,,,,,,,,,,,,,,
1732792752.766809,62.469932556,6.239785671,0.072845414,-2.228486776,0.000000000,0.088871405,,,,,,,,,,,,,,,,,,,,,,,,,,,,,,,,,,,,,,,,,,
